name,city,state_region,country,address,phone,rating,review_count,latitude,longitude,keyword,scraped_date,website
Elite Roofing LLC,Birmingham,Alabama,USA," 1 Perimeter Park S #100, Birmingham, AL 35243", (833) 401-7663,5,,33.4901927,-86.7600861,roof repair near me,2026-06-23,https://www.eliteroofpro.com
Hinkle Roofing,Birmingham,Alabama,USA," 639 1st Ct N, Birmingham, AL 35203", (205) 844-4880,4.7,,33.5058512,-87.129162,roofing repair near me,2026-06-23,http://www.hinkleroofing.com
Blue Angels Roofing Birmingham,Birmingham,Alabama,USA," 2230 Old Springville Rd, Birmingham, AL 35215", (205) 810-1418,4.8,,33.474584,-86.7600861,emergency roof repair near me,2026-06-23,http://www.blueangelsroofing.com
Cahaba Valley Roofing,Birmingham,Alabama,USA," 2 32nd St S, Birmingham, AL 35233", (205) 796-8755,5,,33.5202508,-87.09336,roof leak repair near me,2026-06-23,https://cahabavalleyroofing.com
CentiMark Corporation,Birmingham,Alabama,USA," 161 Commerce Pkwy, Pelham, AL 35124", (205) 909-1366,4.5,,33.329272,-87.0999366,commercial roof repair near me,2026-06-23,https://www.centimark.com
Roofing World,Birmingham,Alabama,USA," 1100 Corporate Dr, Birmingham, AL 35242", (205) 851-9006,,,33.4906332,-86.7600861,metal roof repair near me,2026-06-23,https://roofingworldal.com
Guyette Roofing and Construction,Montgomery,Alabama,USA," 1849 Upper Wetumpka Rd, Montgomery, AL 36107", (334) 279-8326,4.9,,32.5762265,-86.6807364,roof repair near me,2026-06-23,http://www.guyetteroofing.com
Erie Home Roofing,Montgomery,Alabama,USA," 895 Lagoon Commercial Blvd, Montgomery, AL 36117", (334) 500-4225,4.7,,32.5762265,-86.6807364,roof leak repair near me,2026-06-23,https://eriehome.com
Huntsville Roofing Solutions,Huntsville,Alabama,USA," 7734 Madison Blvd Ste 113, Huntsville, AL 35806", (256) 617-6671,4.9,,34.739116,-86.6019995,roof repair near me,2026-06-23,https://www.huntsvilleroofingsolutions.com
Haines Home Inspections,Huntsville,Alabama,USA," 11002 SE Willingham Dr, Huntsville, AL 35803", (256) 652-7448,5,,34.7281495,-86.6019995,roof leak repair near me,2026-06-23,https://www.haineshomeinspections.com
Roofing World,Huntsville,Alabama,USA," 3322 Memorial Pkwy SW Ste 05-535A, Huntsville, AL 35801", (256) 314-9987,4.8,,34.6992935,-86.6780524,metal roof repair near me,2026-06-23,https://roofingworldal.com
"Advanced Roofing & Construction, LLC",Huntsville,Alabama,USA," 7027 Old Madison Pike Ste 108, Huntsville, AL 35806", (256) 603-9171,5,,34.7121048,-86.8295583,roof repair companies near me,2026-06-23,https://advancedalabama.com
Mobile Roofing & Construction,Mobile,Alabama,USA," 114 Westfield Ave, Mobile, AL 36608", (251) 888-0301,4.9,,30.6840031,-89.3949029,roof repair near me,2026-06-23,https://www.roofingmobilealabama.com
Metal Roof Mobile AL,Mobile,Alabama,USA," 805 McNeil Ave, Mobile, AL 36609", (251) 588-3086,5,,30.6737174,-88.3364991,metal roof repair near me,2026-06-23,https://metalroofmobileal.com
Premier Roofing and Repair,Tuscaloosa,Alabama,USA," 2415 12th St, Tuscaloosa, AL 35401", (205) 361-5008,4.8,,33.190332,-87.5758489,roof repair near me,2026-06-23,https://premierroofingandrepair.com
Storm Proof Roofing,Anchorage,Alaska,USA," 205 E Dimond Blvd #549, Anchorage, AK 99515", (907) 770-6666,5,,60.7834785,-149.907509,roof repair near me,2026-06-23,http://stormproofroofing.org
Reds Roofing & Renovations LLC,Anchorage,Alaska,USA," 8240 Hartzell Rd Unit 4, Anchorage, AK 99507", (907) 802-7575,4.8,,60.7834785,-149.907509,emergency roof repair near me,2026-06-23,https://redsroofingak.com
Premier Roofing Co.,Anchorage,Alaska,USA," 11580 Doggie Ave, Anchorage, AK 99507", (907) 346-4131,4.9,,61.116066,-150.9370436,commercial roof repair near me,2026-06-23,https://www.premierroofingalaska.com
A & A Roofing Co,Fairbanks,Alaska,USA," 925 Aspen St, Fairbanks, AK 99709", (907) 452-3633,4.7,,64.853192,-148.0770227,roof repair near me,2026-06-23,https://sites.google.com
Interior Alaska Roofing Inc.,Fairbanks,Alaska,USA," 3790 Schacht St, Fairbanks, AK 99701", (907) 456-5545,4.2,,61.307439,-158.8131739,commercial roof repair near me,2026-06-23,http://www.interiorakroofing.com
Silver Bow Construction,Juneau,Alaska,USA," 5331 Shaune Dr, Juneau, AK 99801", (907) 780-4157,4.7,,57.1970535,-133.9629975,roof repair near me,2026-06-23,https://silverbowalaska.com
Bullick Roofing & Construction Services,Juneau,Alaska,USA," Juneau, AK 99801", (907) 789-0506,5,,61.307439,-158.8131739,metal roof repair near me,2026-06-23,https://desnorth.com
Dumags Roofing Co,Sitka,Alaska,USA," 113 Molly Ln Unit B, Sitka, AK 99835", (907) 738-1465,5,1,57.0744645,-135.4410636,roof repair near me,2026-06-23,https://www.dumagsroofing.com
Channel Seamless Gutter & Roof,Ketchikan,Alaska,USA," 10805 N Tongass Hwy, Ketchikan, AK 99901", (907) 225-3147,4.5,,58.665415,-141.0005939,roof repair near me,2026-06-23,http://schmolckmechanical.com
Flow-Rite Seamless LLC,Phoenix,Arizona,USA," 3401 W Phelps Rd, Phoenix, AZ 85053", (602) 428-0243,5,,33.638161,-112.4372496,roof repair near me,2026-06-23,https://www.phoenixgutter.org
"Guaranteed Home Solutions, LLC",Phoenix,Arizona,USA," 3920 S Rural Rd, Tempe, AZ 85282", (480) 999-2251,4.7,,33.5107331,-112.1050989,roofing repair near me,2026-06-23,https://www.guaranteedhomesolutions.com
CentiMark Corporation,Phoenix,Arizona,USA," 1956 W Cheryl Dr, Phoenix, AZ 85021", (602) 333-6633,4.5,,33.578938,-112.4066786,commercial roof repair near me,2026-06-23,https://www.centimark.com
The Patch Boys of Greater Tucson,Tucson,Arizona,USA," 7400 N Oracle Rd Ste 150-311, Tucson, AZ 85704", (520) 339-6800,4.7,,32.342086,-111.1287363,roof repair near me,2026-06-23,https://patchboystucson.com
Masters Roof Repair Tucson,Tucson,Arizona,USA," 177 N Church Ave Ste 1390, Tucson, AZ 85701", (520) 492-6348,4.7,,32.2215941,-110.963584,commercial roof repair near me,2026-06-23,https://mastersroofrepair.com
Alan Bradley Roofing,Tucson,Arizona,USA," 4151 E Columbia St, Tucson, AZ 85714", (520) 885-3571,3.3,,32.2567161,-110.9446952,flat roof repair near me,2026-06-23,http://www.alanbradleyroofing.com
All About Roofing LLC,Tucson,Arizona,USA," 5232 E Pima St Ste c, Tucson, AZ 85712", (520) 428-3004,4.1,,32.210972,-110.8672565,metal roof repair near me,2026-06-23,https://www.allaboutroofing.com
Day One Roofing,Mesa,Arizona,USA," 4365 E Pecos Rd #108, Gilbert, AZ 85297", (480) 718-6204,5,,33.4247489,-111.7488613,roof repair near me,2026-06-23,https://www.day1roofing.com
Chandler Roofing - Roof Repair & Replacement,Chandler,Arizona,USA," 250 S Arizona Ave Ste 1, Chandler, AZ 85225", (480) 651-8343,5,,33.466465,-112.0426795,roof repair near me,2026-06-23,https://roofing-chandler.com
Real Roofing,Chandler,Arizona,USA," 481 N Arizona Ave, Chandler, AZ 85225", (602) 910-2708,4.9,,33.466465,-112.094617,emergency roof repair near me,2026-06-23,https://www.realroofingofficial.com
Roofer Zeek's Emergency Service,Scottsdale,Arizona,USA," 4848 E Cactus Rd #7090, Scottsdale, AZ 85254", (602) 671-2861,4.8,,33.5991861,-112.2817209,emergency roof repair near me,2026-06-23,https://www.scottsdaleroofingandgutters.com
Acclaimed Roofing Scottsdale | Residential & Commercial Roofing,Scottsdale,Arizona,USA," 6619 N Scottsdale Rd #7, Scottsdale, AZ 85250", (480) 454-7033,4.8,,33.5329607,-112.2287543,commercial roof repair near me,2026-06-23,https://acclaimedroofingaz.com
Scottsdale Roofing and Gutters,Scottsdale,Arizona,USA," 8075 E Morgan Trail, Scottsdale, AZ 85258", (480) 426-0885,5,,33.5489463,-111.9366225,flat roof repair near me,2026-06-23,https://www.scottsdaleroofingandgutters.com
Lux Management Group,Scottsdale,Arizona,USA," 6400 E McDowell Rd Ste #160, Scottsdale, AZ 85257", (480) 999-2308,3.3,,33.5287418,-111.9412569,metal roof repair near me,2026-06-23,https://www.guaranteedhomesolutions.com
Roofing Logistics,Little Rock,Arkansas,USA," 10003 Sibley Hole Rd, Mabelvale, AR 72103", (501) 351-1581,5,,34.7396901,-92.3393497,roof repair near me,2026-06-23,https://roofinganddumpster.com
Raintight Roofing Inc,Little Rock,Arkansas,USA," 15417 AR-107, Jacksonville, AR 72076", (501) 213-1146,4.6,,34.877536,-92.3462103,commercial roof repair near me,2026-06-23,https://www.raintightroofing.net
Roofing Force,Fort Smith,Arkansas,USA," 4916 Towson Ave, Fort Smith, AR 72901", (479) 437-0171,5,,35.336141,-94.5757017,roof repair near me,2026-06-23,https://roofingforce.com
Peak Roofing and Exteriors,Fayetteville,Arkansas,USA," 660 S Crossover Rd, Fayetteville, AR 72701", (479) 301-8070,4.9,,36.1189247,-94.1877006,roof repair near me,2026-06-23,https://thepeakroof.com
Affordable Roofs LLC,Fayetteville,Arkansas,USA," 1189 Highbush Ave, Fayetteville, AR 72701", (479) 313-3299,4.9,,36.0495926,-98.964301,emergency roof repair near me,2026-06-23,http://affordableroofsllc.com
Foster Roofing Company,Springdale,Arkansas,USA," 3357 Wagon Wheel Rd, Springdale, AR 72762", (479) 751-2300,4.9,,36.1881013,-94.1670091,roof repair near me,2026-06-23,https://roofwithfoster.com
Topline Commercial Roofing,Springdale,Arkansas,USA," 8 Grassland Trail, Bentonville, AR 72712", (479) 466-5422,5,,36.371892,-94.2364557,commercial roof repair near me,2026-06-23,https://www.toplineroofpros.com
Delta Roofing & Restoration,Jonesboro,Arkansas,USA," 2301 Congress Cir, Jonesboro, AR 72401", (870) 393-7555,5,,35.963745,-90.7291005,roof repair near me,2026-06-23,https://deltaroofs1.com
Roof X Solutions,Jonesboro,Arkansas,USA," 211 Harry Dr, Jonesboro, AR 72401", (870) 520-9100,4.7,,35.7812745,-90.7291005,commercial roof repair near me,2026-06-23,https://roofxsolutions.com
Ultra Roofer Peak Authority,Los Angeles,California,USA," 750 Garland Ave, Los Angeles, CA 90017", (424) 344-4728,4.8,,34.069949,-118.3170218,roof repair near me,2026-06-23,http://caroofco.com
Evo Roof Repair Los Angeles,Los Angeles,California,USA," 453 S Spring St Ste 1935, Los Angeles, CA 90013", (323) 593-2556,5,,34.0925138,-118.3170218,roofing repair near me,2026-06-23,https://evoroofrepair.com
Central Roofing,Los Angeles,California,USA," 555 W 182nd St, Gardena, CA 90248", (310) 527-6770,4.8,,33.786671,-118.2990476,emergency roof repair near me,2026-06-23,https://lp.centralroof.com
AEL Roof Leak Repair Los Angeles,Los Angeles,California,USA,"Los Angeles, CA, United States", (323) 693-7886,5,,33.786671,-118.2990476,roof leak repair near me,2026-06-23,https://aelroofing.com
Commercial Roofing Los Angeles,Los Angeles,California,USA," 5521 Washington Blvd, Los Angeles, CA 90016", (424) 842-2249,4.9,,34.0375195,-118.5163616,commercial roof repair near me,2026-06-23,https://www.commercialroofinglosangeles.net
LA Roofing Contractors,Los Angeles,California,USA," 320 N Gardner St, Los Angeles, CA 90036", (844) 766-8327,4.8,,34.0768282,-118.5054252,flat roof repair near me,2026-06-23,https://laroofingcontractors.homes
Metal Roofing Los Angeles,Los Angeles,California,USA," 1225 Cypress Ave Ste 3 #V119, Los Angeles, CA 90065", (323) 968-6348,4.9,,34.064071,-118.3133834,metal roof repair near me,2026-06-23,https://www.metalroofinglosangeles.net
"Premier Roofing CA, Inc.",San Diego,California,USA," 9134 Olive Dr, Spring Valley, CA 91977", (619) 667-4565,,,32.7773453,-117.1246852,roof repair near me,2026-06-23,https://www.premierroofingca.com
Los Gatos Roofing,San Jose,California,USA," 888 Faulstich Ct, San Jose, CA 95112", (408) 677-2818,4.8,,37.3125624,-121.8936015,roof repair near me,2026-06-23,https://www.losgatosroofing.com
"Eastman Roofing & Waterproofing, Inc.",San Jose,California,USA," 1418 Douglas St, San Jose, CA 95126", (408) 389-1385,,,37.3264126,-121.8965694,emergency roof repair near me,2026-06-23,https://www.eastmanroofing.com
Trio Roofers,San Jose,California,USA," 1665 W San Carlos St, San Jose, CA 95128", (888) 800-4776,4.8,,37.3275795,-121.9095631,commercial roof repair near me,2026-06-23,https://trioroofers.com
Any Roof Repair & Installation,San Jose,California,USA," 1 Curtner Ave, San Jose, CA 95125", (669) 304-3716,5,,37.3103061,-121.8987319,flat roof repair near me,2026-06-23,http://www.anyroofrepairsanjose.com
Eco Smart Roofer,San Francisco,California,USA," 551 25th Ave, San Francisco, CA 94121", (415) 240-9840,4.9,,37.7638403,-122.439689,roof repair near me,2026-06-23,https://ecosmartroofer.com
SF Roof Specialists,San Francisco,California,USA," 2001 Van Ness Ave, San Francisco, CA 94109", (628) 209-0999,4.8,,37.7361348,-122.439689,roofing repair near me,2026-06-23,https://sanfranciscoroofspecialists.homes
W. R. MEADOWS,San Francisco,California,USA," 652 Indiana Street, Benicia, California 94510-1110", (707) 745-6666,3.5,,37.7361348,-122.4384716,commercial roof repair near me,2026-06-23,https://www.wrmeadows.com
Nabi Construction & Engineering,San Francisco,California,USA," 340 Division St, San Francisco, CA 94103", (415) 552-2215,4.2,,37.7265768,-122.4384716,flat roof repair near me,2026-06-23,https://www.nabiconstruction.com
Marina Bay Roofing,San Francisco,California,USA," 4411 Geary Blvd #301, San Francisco, CA 94118", (628) 233-8140,5,,37.780606,-122.6191353,metal roof repair near me,2026-06-23,https://marinabayroofing.com
"Roof Maxx of N. Fresno, CA",Fresno,California,USA," 4762 W Jennifer Ave Ste 101, Fresno, CA 93722", (559) 550-6398,4.9,,36.812334,-120.4891589,roof repair near me,2026-06-23,https://roofmaxx.com
Roof Pros Roofing & General Construction,Fresno,California,USA," 440 W Fallbrook Ave #105, Fresno, CA 93711", (559) 408-6506,5,,36.709082,-119.7498099,emergency roof repair near me,2026-06-23,http://www.roofprosroofing.com
Grandmark Service Company,Fresno,California,USA," 4545 N Brawley Ave Ste 105, Fresno, CA 93722", (559) 272-7495,,,36.7950973,-119.7892632,commercial roof repair near me,2026-06-23,https://www.grandmarkservicecompany.com
Best Choice Roofing,Fresno,California,USA," 2777 W Browning Ave, Fresno, CA 93711", (559) 575-2734,4.9,,36.8189158,-119.9961462,metal roof repair near me,2026-06-23,https://californiabestchoiceroofing.com
Sacramento Roof Repair,Sacramento,California,USA," 180 Promenade Cir 304 #304, Sacramento, CA 95834", (279) 999-7759,4.9,,38.6364574,-121.6517504,roof repair near me,2026-06-23,http://sacramentorooffix.com
Sacramento Roofing Service & Contractors,Sacramento,California,USA," 2019 O St #101, Sacramento, CA 95811", (279) 238-5044,5,,38.571238,-121.6337489,roofing repair near me,2026-06-23,https://sacramentoroofingservice.site
CentiMark Corporation,Sacramento,California,USA," 1010 Winding Creek Rd #130, Roseville, CA 95678", (916) 290-9890,3.1,,38.5928828,-121.262551,commercial roof repair near me,2026-06-23,https://www.centimark.com
California Flat Roofs,Sacramento,California,USA," 5000 Emerald Brook Way, Sacramento, CA 95838", (916) 603-3212,4.7,,38.6585655,-122.0495752,flat roof repair near me,2026-06-23,http://www.californiaflatroofs.com
Specialist Roofing & Repair,Long Beach,California,USA," 1 World Trade Center 8th Floor, Long Beach, CA 90831", (562) 207-5139,4.8,,33.767897,-119.4197104,roof repair near me,2026-06-23,https://specialistroofing.com
Central Roofing Company Huntington Beach,Long Beach,California,USA," 3182 Portofino Cir, Huntington Beach, CA 92649", (714) 733-2368,5,,33.835649,-118.0405815,emergency roof repair near me,2026-06-23,https://lp.centralroof.com
Simon Roofing,Long Beach,California,USA," 2730 S Fairview St, Santa Ana, CA 92704", (323) 219-5793,3,,33.835649,-118.0405815,metal roof repair near me,2026-06-23,https://simonroofing.com
Signature Roof Repair,Oakland,California,USA," 3873 Piedmont Ave #9, Oakland, CA 94611", (510) 322-2206,4.9,,37.8248491,-122.3309172,roof repair near me,2026-06-23,http://pinchednervespecialistsouthbrunswick.site
Emergency Roof Repair Company,Oakland,California,USA," 1378 N Main St, Walnut Creek, CA 94596", (925) 425-2684,5,,37.6800051,-122.0352586,emergency roof repair near me,2026-06-23,http://oaklandroofingpros.com
Summit Roof Repair,Oakland,California,USA," 333 Hegenberger Rd 501 Suite 501, Oakland, CA 94621", (341) 234-3143,4.9,,37.7356796,-122.8081578,roof leak repair near me,2026-06-23,http://summitroofrepair.site
W. R. MEADOWS,Oakland,California,USA," 652 Indiana St, Benicia, CA 94510", (707) 745-6666,3.5,,38.0723,-122.2800373,commercial roof repair near me,2026-06-23,https://www.wrmeadows.com
Simon Roofing,Oakland,California,USA," 584 Castro St, San Francisco, CA 94114", (213) 248-3224,5,,37.759609,-122.5875363,metal roof repair near me,2026-06-23,https://simonroofing.com
Roof On Brand,Bakersfield,California,USA," 239 Bernard St, Bakersfield, CA 93305", (661) 636-8844,5,,35.2935235,-118.9054431,roof repair near me,2026-06-23,https://www.roofonbrand.com
Superior Roofing Systems,Anaheim,California,USA," 1101 E Gene Autry Way, Anaheim, CA 92805", (714) 557-5077,5,,33.7935719,-117.8882932,roof repair near me,2026-06-23,https://www.superiorroofingsystems.com
Central Roofing Company,Anaheim,California,USA," 8171 Monroe Ave, Stanton, CA 90680", (213) 414-7642,4.9,26,33.806095,-118.1423603,emergency roof repair near me,2026-06-23,https://lp.centralroof.com
W. R. MEADOWS of SOUTHERN CALIFORNIA,Anaheim,California,USA," 2300 Valley Blvd, Pomona, CA 91768", (909) 469-2606,4.6,,33.8223407,-117.905894,commercial roof repair near me,2026-06-23,https://www.wrmeadows.com
Denver Roofers LLC,Denver,Colorado,USA," 4454 Tennyson St, Denver, CO 80212", (720) 443-4202,4.9,,39.7775891,-105.1961449,roof repair near me,2026-06-23,http://mydenverroofers.com
Elite Roofing & Solar,Denver,Colorado,USA," 5475 Peoria St #4-106, Denver, CO 80239", (303) 296-0361,4.9,,39.7229532,-104.9461916,roofing repair near me,2026-06-23,https://www.elite-roofs.com
New Roof Plus,Denver,Colorado,USA," 110 16th St Mall Ste 1455, Denver, CO 80202", (303) 529-7554,4.9,,39.7416029,-104.958937,emergency roof repair near me,2026-06-23,https://www.newroofplus.com
"Peak To Peak Roofing & Exteriors, LLC",Denver,Colorado,USA," 4155 E Jewell Ave #1100, Denver, CO 80222", (720) 740-4325,4.9,,39.7410992,-104.9461916,roof leak repair near me,2026-06-23,https://peaktopeakroofing.com
CentiMark Corporation,Denver,Colorado,USA," 12330 E 46th Ave #100, Denver, CO 80239", (303) 583-3939,4.9,,39.7410992,-104.9560762,commercial roof repair near me,2026-06-23,https://www.centimark.com
Frontier Metal Roofing,Denver,Colorado,USA," 2570 S Dayton Way apt f108, Denver, CO 80231", (720) 615-2627,5,,40.0389714,-104.4757464,metal roof repair near me,2026-06-23,https://denvercometalroofing.com
Cheyenne Mountain Roofing - Colorado Springs Roof Repair & Replacement,Colorado Springs,Colorado,USA," 712 Clark Pl Unit 110, Colorado Springs, CO 80915", (719) 322-4659,4.9,,38.9025582,-104.7772901,roof repair near me,2026-06-23,https://cheyennemtnroofing.com
Elevation Commercial Roofing,Colorado Springs,Colorado,USA," 90 Mt View Ln Ste I, Colorado Springs, CO 80907", (719) 351-0553,5,,38.89112,-104.9739903,commercial roof repair near me,2026-06-23,https://elevationcommercialroofing.com
"Rampart Roofing, Inc.",Colorado Springs,Colorado,USA," 912 N Circle Dr, Colorado Springs, CO 80909", (719) 487-7663,4.9,,38.8587887,-104.7772901,metal roof repair near me,2026-06-23,http://www.rampartroofing.com
Hernandez & Sons Roofing,Aurora,Colorado,USA," 18121 E Hampden Pl, Aurora, CO 80013", (720) 679-5500,4.8,,39.6558635,-104.8444535,roof repair near me,2026-06-23,https://hernandezsonsroofing.com
Fort Roof Repairs,Fort Collins,Colorado,USA," 207 W Myrtle St, Fort Collins, CO 80521", (714) 261-9263,5,,40.5798544,-105.2319006,roof repair near me,2026-06-23,https://fort-roof-repairs.ueniweb.com
Bone Dry Roofing,Fort Collins,Colorado,USA," 1301 E Mulberry St, Fort Collins, CO 80524", (970) 557-7619,4.8,,40.535873,-105.0503936,emergency roof repair near me,2026-06-23,https://www.bonedry.com
Colorado Superior Roofing & Exteriors,Lakewood,Colorado,USA," 7721 W 6th Ave Unit b, Lakewood, CO 80214", (303) 937-7000,4.8,,39.7172664,-105.0652998,roof repair near me,2026-06-23,https://coloradosuperiorroofing.com
Richie's Roofing Llc,Bridgeport,Connecticut,USA," 7 Woods Way, New Fairfield, CT 06812", (203) 994-3019,4.7,,41.467388,-74.0792992,roof repair near me,2026-06-23,https://quote.richiesroofingct.net
Richie's Roofing Llc,Bridgeport,Connecticut,USA," 7 Woods Way, New Fairfield, Connecticut 06812", (203) 994-3019,4.7,,41.317135,-73.227912,roof leak repair near me,2026-06-23,https://quote.richiesroofingct.net
Ellis Builders LLC,New Haven,Connecticut,USA," 238 Reservoir Rd, Southbury, CT 06488", (860) 499-4970,5,,41.3188464,-72.9545619,roof repair near me,2026-06-23,https://www.ellisbuildersllc.com
Pro Exteriors LLC,New Haven,Connecticut,USA," 90 Hamilton St, New Haven, CT 06511", (203) 909-8075,4.9,,41.3188464,-72.9545619,roofing repair near me,2026-06-23,https://proexteriorsct.com
Ellis Builders LLC,New Haven,Connecticut,USA,"238 Reservoir Rd, Southbury, CT 06488, United States", (860) 499-4970,5,,41.4296122,-72.8988419,metal roof repair near me,2026-06-23,https://www.ellisbuildersllc.com
BNF Construction LLC,Hartford,Connecticut,USA," 270 Fairview St, New Britain, CT 06051", (860) 215-2842,5,,41.500727,-72.757507,roof repair near me,2026-06-23,https://www.bnfconstruction.com
Hemlock Roofing,Hartford,Connecticut,USA," 105 Evergreen Ave, Hartford, CT 06105", (774) 418-3724,5,,41.500727,-72.757507,emergency roof repair near me,2026-06-23,https://hemlockroofingco.com
QNK Roofing Stamford Ct,Stamford,Connecticut,USA," 113 Stillwater Ave, Stamford, CT 06902", (203) 883-5033,4.8,,41.164176,-73.472772,roof repair near me,2026-06-23,https://www.qnkroofing.com
G & V Roofing,Stamford,Connecticut,USA," 942 Putnam Ave, Merrick, NY 11566", (516) 437-7955,5,,40.695966,-74.1697762,roofing repair near me,2026-06-23,https://www.gandvroofing.com
"David's Roofing and Restorations, LLC",Stamford,Connecticut,USA," 34 Maple Ave, Armonk, NY 10504", (914) 494-9094,5,,41.126718,-74.9317024,commercial roof repair near me,2026-06-23,https://www.davidsroof.com
Rock Roof LLC,Wilmington,Delaware,USA," 109 N Dupont Rd, Wilmington, DE 19807", (302) 547-3625,4.9,,39.753858,-75.7409173,roof repair near me,2026-06-23,https://www.rockroofingde.com
DE Commercial Roofing Pros of Wilmington DE,Wilmington,Delaware,USA," 1007 Orange St #602, Wilmington, DE 19801", (302) 246-8508,5,,39.7458842,-75.5556691,commercial roof repair near me,2026-06-23,https://decommercialroofers.com
Bright Side Roofing,Dover,Delaware,USA," 4 Mifflin Rd, Dover, DE 19904", (302) 674-4642,4.8,,39.221858,-76.3165074,roof repair near me,2026-06-23,https://trustbrightside.com
Class Roofing,Newark,Delaware,USA," 16 Ardmore Rd, Newark, DE 19713", (302) 405-2392,5,,39.6554013,-75.8931503,roof repair near me,2026-06-23,https://roofingwithclass.com
"Perfect Roofing, Inc.",Newark,Delaware,USA," 701 Dawson Dr, Newark, DE 19713", (302) 246-7214,5,,39.5275047,-78.687782,roofing repair near me,2026-06-23,https://www.perfectroofing.us
EDiS Company,Newark,Delaware,USA," 110 S Poplar St #400, Wilmington, DE 19801", (302) 421-5700,4.6,,39.633545,-75.7007595,metal roof repair near me,2026-06-23,https://butlerpartsonline.com
"Paddy's Roofing, Siding and Chimneys",Middletown,Delaware,USA," 5207 Summit Bridge Rd, Middletown, DE 19709", (302) 691-9891,4.9,,39.5374881,-75.7083484,roof repair near me,2026-06-23,https://www.gopaddys.com
Roof It - Delaware Roofing Contractors,Middletown,Delaware,USA," 420 Boyds Corner Rd Ste C, Middletown, DE 19709", (302) 676-6348,5,,39.3481285,-75.608722,metal roof repair near me,2026-06-23,http://roofit.today
SPC Roofers,Jacksonville,Florida,USA," 1845 University Blvd N, Jacksonville, FL 32211", (904) 647-5945,4.8,,30.2551777,-81.6343604,roof repair near me,2026-06-23,https://spcroofers.com
Jacksonville Roofing USA,Jacksonville,Florida,USA," 6215-1 Wilson Blvd Building 1, Jacksonville, FL 32210", (904) 516-4279,5,,30.2718809,-81.897147,roofing repair near me,2026-06-23,https://jacksonvilleroofingusa.com
Jacksonville Roofing Repair and Installations,Jacksonville,Florida,USA," 3955 Riverside Ave, Jacksonville, FL 32205", (786) 652-1600,5,,30.2685256,-81.5313199,roof leak repair near me,2026-06-23,https://jacksonville-roofing-repair-and-installations.ueniweb.com
SDG Roofing,Miami,Florida,USA," 16650 N Kendall Dr Ste 208, Miami, FL 33196", (305) 904-9923,5,,25.682709,-80.5373957,roof repair near me,2026-06-23,https://sdgroofing.com
SDG Roofing,Miami,Florida,USA," 16650 North Kendall Drive Suite 208, Miami, FL 33196", (305) 904-9923,,,25.796238,-80.2608996,emergency roof repair near me,2026-06-23,https://sdgroofing.com
Ultra Roof Repair Miami,Miami,Florida,USA," 333 SE 2nd Ave Suite #3995, Miami, FL 33131", (305) 676-8110,4.9,,25.7869341,-80.2540364,flat roof repair near me,2026-06-23,https://ultraroofrepair.com
4thGen Roofing,Tampa,Florida,USA," 13790 49th Street N, Clearwater, FL 33762", (727) 353-3024,5,,27.897168,-83.0060656,roof repair near me,2026-06-23,https://4thgenroofing.com
Gravity Roofing,Orlando,Florida,USA," 14 S Bumby Ave, Orlando, FL 32803", (407) 461-0234,5,,28.531543,-81.399048,roof repair near me,2026-06-23,https://gravityroof.com
Gold Key Roofing,Orlando,Florida,USA," 4874 S Orange Ave, Orlando, FL 32806", (407) 851-0680,4.8,,28.5336618,-81.399048,roof leak repair near me,2026-06-23,https://www.goldkeyroofing.com
Rhino Commercial Roofing,Orlando,Florida,USA," 1255 La Quinta Dr Ste 230, Orlando, FL 32809", (407) 270-1489,5,,28.509285,-81.394644,commercial roof repair near me,2026-06-23,https://rhinocommercialroofers.com
Thomas Roofing & Repair,Orlando,Florida,USA," 924 W Colonial Dr, Orlando, FL 32804", (407) 408-0577,4.8,,28.5351292,-81.399048,roof repair companies near me,2026-06-23,https://thomasroofingandrepair.com
Florida Roof-Tech,Hialeah,Florida,USA," 2730 W 78th St, Hialeah, FL 33016", (305) 363-6760,4.6,,25.8756546,-80.3274034,emergency roof repair near me,2026-06-23,https://frtroof.com
Tadlock Roofing,Tallahassee,Florida,USA," 502 Capital Cir SE Unit C1, Tallahassee, FL 32301", (850) 601-8574,4.8,,30.227236,-84.5028384,roof repair near me,2026-06-23,https://tadlockroofing.com
Tallahassee Roofing Inc.,Tallahassee,Florida,USA," 5521 Tower Rd, Tallahassee, FL 32303", (850) 562-8366,4.6,,30.227236,-84.5028384,roofing repair near me,2026-06-23,https://www.tallahasseeroofinginc.com
Ultra Roof Repair Fort Lauderdale,Fort Lauderdale,Florida,USA," 110 SE 6th St #3292, Fort Lauderdale, FL 33301", (954) 594-8655,5,,26.2054655,-80.255922,roof repair near me,2026-06-23,https://ultraroofrepair.com
Roof Leak Repair by RoofingGuys,Fort Lauderdale,Florida,USA," 4725 N Ocean Dr #122, Lauderdale-By-The-Sea, FL 33308", (954) 353-8666,5,,26.2054655,-80.255922,roof leak repair near me,2026-06-23,https://roofleakrepairroofingguys.com
Florida Commercial Roofing and Construction,Fort Lauderdale,Florida,USA," 3100 NE 56th Ct, Fort Lauderdale, FL 33308", (754) 310-8201,5,,26.2054655,-80.255922,commercial roof repair near me,2026-06-23,https://floridacommercialroofing.net
Simon Roofing,Fort Lauderdale,Florida,USA," 6550 W State Rd 84, Davie, FL 33317", (321) 446-5330,3,2,26.1564401,-80.1673609,metal roof repair near me,2026-06-23,https://simonroofing.com
FLORIDA SMART RENOVATION LLC,Fort Lauderdale,Florida,USA," 7727 NW 25th St, Margate, FL 33063", (386) 649-8888,5,,26.258392,-80.3815263,roof repair companies near me,2026-06-23,https://floridasmartrenovation.com
"Rockstar Roofing, Inc.",Pembroke Pines,Florida,USA," 13791 NW 19th Ct, Pembroke Pines, FL 33028", (954) 559-1847,5,,26.0442317,-80.3023925,commercial roof repair near me,2026-06-23,http://rockstarfl.com
Roof Smart of SW Florida,Cape Coral,Florida,USA," 1345 Old Pondella Rd, Cape Coral, FL 33909", (239) 549-7663,4.7,,26.6328954,-81.9852713,roof repair near me,2026-06-23,http://roofsmartflorida.com
Roof EZ Inc,Cape Coral,Florida,USA," 2528 Andalusia Blvd #1, Cape Coral, FL 33909", (239) 788-6108,4.9,,26.6396369,-81.9852713,emergency roof repair near me,2026-06-23,https://roofez.net
Sherlock Home Inspections,Cape Coral,Florida,USA," 13300-56 S Cleveland Ave #112, Fort Myers, FL 33907", (833) 474-3756,5,,26.6328954,-81.9852713,roof leak repair near me,2026-06-23,https://www.sherlock-inspections.com
The Home Depot,Atlanta,Georgia,USA," 650 Ponce De Leon Ave NE, Atlanta, GA 30308", (404) 892-8042,4,,33.832279,-84.4016666,roof repair near me,2026-06-23,https://www.homedepot.com
"Castle Roofing Atlanta, GA",Atlanta,Georgia,USA," 1201 Peachtree St NE FL. 3, Atlanta, GA 30361", (470) 601-6422,4.9,,33.8903709,-84.3663188,emergency roof repair near me,2026-06-23,https://www.castleroofing.us
Simon Roofing,Atlanta,Georgia,USA," 890 Chattahoochee Ave NW, Atlanta, GA 30318", (470) 705-7869,5,,33.8869078,-84.4319167,metal roof repair near me,2026-06-23,https://simonroofing.com
R L Hayes Roofing & Repairs,Augusta,Georgia,USA," 3540 Wheeler Rd Ste 103, Augusta, GA 30909", (706) 955-2976,4.7,,33.4811583,-82.0852146,roof repair near me,2026-06-23,https://www.local-roofing-services.com
Expert Roofers Columbus,Columbus,Georgia,USA," 1751 44th St Suite A, Columbus, GA 31904", (706) 917-2768,4.7,,32.5062189,-85.1181125,roof repair near me,2026-06-23,https://www.expertrooferscolumbus.com
Supreme Roofing Columbus GA,Columbus,Georgia,USA," 450 St Johns Way, Columbus, GA 31901", (706) 222-2060,4.7,,32.4747349,-85.13922,roofing repair near me,2026-06-23,https://www.supremeroofingcolumbusga.com
Roofing World,Columbus,Georgia,USA," 2920 Edgewood Rd, Columbus, GA 31906", (706) 709-0250,4.9,,32.5654659,-84.9343863,metal roof repair near me,2026-06-23,https://roofingworldal.com
Central Georgia Roof Repairs,Macon,Georgia,USA," 6004 Hawkinsville Rd Ste A, Macon, GA 31216", (478) 733-8379,4.9,,32.741382,-83.5781475,roof repair near me,2026-06-23,https://www.centralgaroofrepairs.com
Apex Roofing,Macon,Georgia,USA," 3835 Vineville Ave, Macon, GA 31204", (478) 957-1044,4.9,,33.084703,-83.7522606,leaking roof repair near me,2026-06-23,https://www.apexroofingga.com
True North Restoration of Savannah,Savannah,Georgia,USA," 42 W Montgomery Cross Rd Ste G, Savannah, GA 31406", (912) 200-6763,5,,32.0708638,-82.8801049,roof repair near me,2026-06-23,https://www.truenorthrestorationofsavannahga.com
Designer Roofing & Restoration LLC,Savannah,Georgia,USA," 2 Mall Ct, Savannah, GA 31406", (912) 921-9568,5,,31.9709423,-82.9870839,commercial roof repair near me,2026-06-23,https://designerroofs.com
Savannah Roofing Company,Savannah,Georgia,USA," 1911 E 57th St, Savannah, GA 31404", (912) 421-2679,4.9,,31.9709423,-82.9870839,metal roof repair near me,2026-06-23,https://savannahroofingco.com
The Home Depot,Athens,Georgia,USA," 1740 Epps Bridge Rd, Athens, GA 30606", (706) 353-6079,4.2,,33.912593,-83.5973133,roof repair near me,2026-06-23,https://www.homedepot.com
Athens Roofing,Athens,Georgia,USA," 2161 W Broad St, Athens, GA 30606", (706) 338-0472,4.9,,33.9309978,-83.4298811,emergency roof repair near me,2026-06-23,https://athensroofing.com
Oahu Roofing & Repairs Honolulu,Honolulu,Hawaii,USA," 1138 Kamaile St #3, Honolulu, HI 96814", (808) 746-7377,5,,21.3497904,-157.8771116,roof repair near me,2026-06-23,https://oahu-roofing.com
Waialae Plumbing & Construction,Honolulu,Hawaii,USA," 825 Halekauwila St D Ste D, Honolulu, HI 96813", (808) 735-8595,4.9,,21.357462,-157.863885,emergency roof repair near me,2026-06-23,https://waialaeplumbing.com
Headed Home Roofing LLC,Pearl City,Hawaii,USA," 96-1173 Waihona St St a8, Pearl City, HI 96782", (808) 455-4663,4.9,,21.357462,-157.863885,roof repair near me,2026-06-23,https://www.headedhomeroofing.com
Hilo Roofing Crew,Hilo,Hawaii,USA," 564 Hinano St #992, Hilo, HI 96720", (808) 300-5544,4.3,,19.5895753,-155.4341799,roof repair near me,2026-06-23,http://www.hawaiiroofingexperts.com
Mauna Construction LLC,Hilo,Hawaii,USA," 1178 Oihana St, Hilo, HI 96720", (808) 987-9114,5,,19.5934565,-155.4378965,roofing repair near me,2026-06-23,https://maunaconstruction.com
Yama's Roofing,Hilo,Hawaii,USA," 94 W Kawailani St, Hilo, HI 96720", (808) 961-9248,4.5,,19.5934565,-155.4378965,roof repair companies near me,2026-06-23,https://www.yamasroofing.com
All Around Roofing & Waterproofing LLC,Kailua,Hawaii,USA,"Waimanalo, HI, United States, 96795", (808) 226-8864,4.9,,21.357462,-160.2786673,roof repair near me,2026-06-23,http://aaroofinghawaii.com
Boise Roof,Boise,Idaho,USA," 1687 Pineridge Dr E, Boise, ID 83716", (208) 740-8787,4.9,,43.6107433,-116.2529212,roof repair near me,2026-06-23,https://boiseroofrepair.co
Point Roofing & Restoration,Boise,Idaho,USA," 4906 W Overland Rd, Boise, ID 83705", (208) 761-5106,4.9,,43.6107433,-116.2719043,commercial roof repair near me,2026-06-23,https://www.pointroof.com
Boise Metal Roofing,Boise,Idaho,USA," 106 W 37th St, Boise, ID 83714", (208) 314-8258,5,,43.6107433,-116.2719043,metal roof repair near me,2026-06-23,https://roofingboise.net
Idaho Roofing Contractors,Meridian,Idaho,USA," 1565 S Rolling Hl Dr, Meridian, ID 83642", (208) 921-7821,4.9,,43.5933301,-116.3483662,roof repair near me,2026-06-23,https://www.idahoroofingcontractors.com
Emerald Roofing Group,Nampa,Idaho,USA," 1910 Madison Ave, Nampa, ID 83687", (208) 779-0004,5,,43.2502327,-115.9971125,roof repair near me,2026-06-23,http://www.emeraldroofs.com
Legacy Roofing LLC,Nampa,Idaho,USA," 10909 Pelican Ln, Nampa, ID 83686", (208) 901-1142,5,,43.2502327,-115.9971125,commercial roof repair near me,2026-06-23,https://legacyroofingidaho.com
Roof Rescue,Idaho Falls,Idaho,USA," 496 W 15th St, Idaho Falls, ID 83402", (208) 932-8178,4.8,,43.5936226,-112.8011524,roof repair near me,2026-06-23,https://roofrescueusa.com
Idaho Furnace Plumbing Source,Idaho Falls,Idaho,USA," 5200 Beach Dr Suite # 4, Idaho Falls, ID 83401", (208) 268-0997,4.9,,43.5936226,-112.8011524,roof leak repair near me,2026-06-23,https://www.idahofurnaceplumbingsource.com
CCX Roofing,Pocatello,Idaho,USA," 2601 Pole Line Rd, Pocatello, ID 83201", (208) 487-5443,4.8,,42.886381,-114.9055578,roof repair near me,2026-06-23,https://ccxroofing.com
Idaho Elite Roofing,Pocatello,Idaho,USA," 1428 N 3rd Ave, Pocatello, ID 83201", (208) 223-2347,5,,42.87545,-114.8959894,metal roof repair near me,2026-06-23,https://idahoeliteroofing.com
Chicago Flat Roofing Contractors | Residential & Commercial Roofing Repairs,Chicago,Illinois,USA," 1347 N Western Ave, Chicago, IL 60622", (773) 209-1468,4.9,,41.8416405,-87.7272289,roof repair near me,2026-06-23,https://www.chicagoflatroofingcontractors.org
HighPoint Emergency Roof Repair,Chicago,Illinois,USA," 652 N La Salle Dr, Chicago, IL 60654", (773) 831-4285,5,,41.8416405,-87.7373074,emergency roof repair near me,2026-06-23,https://allroofsemergencyroofing.com
Metal Roofing Chicago,Chicago,Illinois,USA," 4248 W Diversey Ave, Chicago, IL 60639", (773) 345-7243,5,,41.9252025,-87.7305726,metal roof repair near me,2026-06-23,https://www.metalroofingchicago.net
"Affordable Roofing, Inc",Aurora,Illinois,USA," 1500 Dearborn Ave No. 11, Aurora, IL 60505", (847) 701-4820,4.8,,41.765178,-88.291721,roof repair near me,2026-06-23,https://www.affordableroofing.net
Atlas Roof Roofing Companies & Roof Repair,Aurora,Illinois,USA," 1444 N Farnsworth Ave #100, Aurora, IL 60505", (331) 212-8509,4.9,,41.765178,-88.291721,roofing repair near me,2026-06-23,https://roofreplacementaurora.com
W. R. Meadows Construction Products,Aurora,Illinois,USA," 300 Industrial Dr, Hampshire, IL 60140", (800) 342-5976,4.8,,42.101752,-88.6661663,commercial roof repair near me,2026-06-23,https://www.wrmeadows.com
Naperville Roofing and Construction,Naperville,Illinois,USA," 1701 Quincy Ave #25, Naperville, IL 60540", (630) 541-4998,4.9,,41.7514194,-88.1810051,roof repair near me,2026-06-23,https://napervilleroofingandconstruction.com
Happy Roofing,Naperville,Illinois,USA," 1155 S Washington St Ste 207, Naperville, IL 60540", (630) 234-8331,4.9,,41.7514194,-88.1727715,roof leak repair near me,2026-06-23,https://happyroofing.com
Stec Roofing,Naperville,Illinois,USA," 5S413 Columbia St, Naperville, IL 60563", (630) 971-1589,4.9,,41.7514194,-88.1448621,commercial roof repair near me,2026-06-23,https://www.stecroofinginc.com
"H&H Roofing, Inc.",Joliet,Illinois,USA," 111 S Midland Ave, Joliet, IL 60436", (815) 791-8432,4.9,,41.5198954,-88.7255087,roof repair near me,2026-06-23,https://www.hhroofinginc.com
Great Roofing,Joliet,Illinois,USA," 1740 McDonough St, Joliet, IL 60436", (708) 646-0057,4.9,,41.5151457,-88.7321246,emergency roof repair near me,2026-06-23,https://greatroofingllc.com
TrueRoof,Joliet,Illinois,USA," 3340 Mall Loop Dr Spc 1230, Joliet, IL 60431", (312) 885-8558,4.9,,41.5738129,-88.1434979,commercial roof repair near me,2026-06-23,https://trueroof.app
"Top Notch Roofing & Exteriors, INC.",Rockford,Illinois,USA," 7703 Forest Hills Rd, Loves Park, IL 61111", (815) 721-4666,4.9,,42.330512,-89.6303252,roof repair near me,2026-06-23,https://www.topnotchroofing.net
Warner Roofing & Restoration,Rockford,Illinois,USA," 417 S Winnebago St, Rockford, IL 61102", (815) 877-7663,4.8,,42.2697628,-89.7107514,roofing repair near me,2026-06-23,https://www.warnerroofdog.com
Sutton's,Springfield,Illinois,USA," 1926 N Peoria Rd, Springfield, IL 62702", (217) 528-3911,4.8,,39.8130732,-89.63656,roof repair near me,2026-06-23,https://suttonsinc.com
Blackhawk Roofing,Springfield,Illinois,USA," 4208 Southwoods Rd, Springfield, IL 62711", (217) 741-6251,4.9,,39.7811812,-89.8864492,commercial roof repair near me,2026-06-23,http://www.blackhawkroofing.us
Acosta Angeli Roofing,Springfield,Illinois,USA," 2144 S MacArthur Blvd Ste 204, Springfield, IL 62704", (217) 993-2748,4.9,,39.7757152,-90.8874096,flat roof repair near me,2026-06-23,https://www.acostaangeliroofing.com
Two Brothers Roofing Inc,Indianapolis,Indiana,USA," 2376 E 54th St, Indianapolis, IN 46220", (317) 360-0441,4.8,,39.7941855,-86.1486873,roof repair near me,2026-06-23,https://www.twobrothersroofing.com
Landmark Roofing Fort Wayne,Fort Wayne,Indiana,USA," 5130 New Haven Ave, Fort Wayne, IN 46803", (260) 610-7006,4.8,,41.196202,-85.364842,roof repair near me,2026-06-23,https://www.landmarkroofingexperts.com
Bone Dry Roofing,Fort Wayne,Indiana,USA," 1211 W Coliseum Blvd, Fort Wayne, IN 46808", (260) 250-3733,4.6,,41.0949614,-85.1464771,emergency roof repair near me,2026-06-23,https://bonedry.com
Bone Dry Roofing,Fort Wayne,Indiana,USA,"1211 W Coliseum Blvd, Fort Wayne, IN 46808, United States", (260) 250-3733,4.6,,41.0949614,-85.1464771,roof leak repair near me,2026-06-23,https://bonedry.com
Fort Wayne Commercial Roofing,Fort Wayne,Indiana,USA," 3521 Lake Ave #12, Fort Wayne, IN 46805", (260) 208-6706,5,,41.0938811,-85.1356515,commercial roof repair near me,2026-06-23,https://fortwaynecommercialroofing.com
4Ever Metal Roofing,Fort Wayne,Indiana,USA," 1911 Production Rd, Fort Wayne, IN 46808", (260) 234-2252,4.8,,41.196202,-85.364842,metal roof repair near me,2026-06-23,https://www.4evermetalroofing.com
Honest Abe Roofing Evansville,Evansville,Indiana,USA," 7390 Peachwood Dr, Newburgh, IN 47630", (812) 777-8800,4.7,,38.1591966,-87.4273724,roof repair near me,2026-06-23,https://info.honestaberoofing.com
Bone Dry Roofing,Evansville,Indiana,USA," 2211 N Burkhardt Rd, Evansville, IN 47715", (812) 993-4626,5,,38.0147177,-87.6451644,emergency roof repair near me,2026-06-23,https://www.bonedry.com
Reliable Roofing & Construction,South Bend,Indiana,USA," 2048 E Ireland Rd Ste A, South Bend, IN 46614", (574) 302-7977,4.7,,41.6540488,-86.2160068,roof repair near me,2026-06-23,https://www.reliableroofingonline.com
Asscher Roofing Company,South Bend,Indiana,USA," 1126 W Western Ave, South Bend, IN 46601", (574) 234-9380,4.9,,41.6719195,-86.419617,emergency roof repair near me,2026-06-23,http://asscherroofing.com
"Fields Gutter & Siding, Inc",Carmel,Indiana,USA," 3779 E County Rd 951 N, Pittsboro, IN 46167", (317) 662-3764,4.5,,39.901005,-86.6150343,roof repair near me,2026-06-23,https://www.fieldsgutterandsiding.com
Fields Gutter & Siding Inc,Carmel,Indiana,USA,"3779 E County Rd 951 N, Pittsboro, IN 46167, United States", (317) 662-3764,4.5,,39.971665,-86.1741897,roof repair companies near me,2026-06-23,https://www.fieldsgutterandsiding.com
Recon Roofing & Construction,Des Moines,Iowa,USA," 455 SW 5th St C, Des Moines, IA 50309", (515) 375-5437,4.9,,41.6288026,-93.7071486,roof repair near me,2026-06-23,https://www.reconroof.com
JC Toland Painting,Des Moines,Iowa,USA," 395 NW 43rd Pl, Des Moines, IA 50313", (515) 288-2402,4.3,,41.5966977,-93.6872051,commercial roof repair near me,2026-06-23,https://www.jctoland.com
For Sure Roofing,Des Moines,Iowa,USA," 6545 NE 14th St, Des Moines, IA 50313", (515) 367-7873,4.9,,41.6520748,-93.7022167,metal roof repair near me,2026-06-23,http://www.forsureroofing.com
Garcia Roofing & Exteriors,Cedar Rapids,Iowa,USA," 1116 Center Point Rd NE, Cedar Rapids, IA 52402", (319) 527-8025,4.9,,41.938318,-93.3897729,roof repair near me,2026-06-23,http://garciaroofingandexteriors.com
Erie Home,Davenport,Iowa,USA," 4374 State St Ste 2, Bettendorf, IA 52722", (563) 500-1819,4.7,,41.632359,-90.5117614,roof repair near me,2026-06-23,https://roof.eriehome.com
Roof Drs,Davenport,Iowa,USA," 1313 N Harrison St, Davenport, IA 52803", (563) 888-8967,4.9,,41.632359,-90.5117614,emergency roof repair near me,2026-06-23,https://qcroofdrs.com
Siouxland Gutter Guys,Sioux City,Iowa,USA," 1910 9th Ave, South Sioux City, NE 68776", (712) 490-1784,1,,42.4678755,-96.3993026,roof repair near me,2026-06-23,https://siouxlandgutterguys.com
"Ideal Roofing Co., L.L.C.",Sioux City,Iowa,USA," 3311 Idlewood St, Sioux City, IA 51104", (712) 204-6267,5,,42.4678755,-96.3993026,roof leak repair near me,2026-06-23,https://www.idealroofingsiouxcityiowa.com
Century Roofing Company,Iowa City,Iowa,USA," 71 Commercial Dr, Iowa City, IA 52246", (319) 351-5055,,,41.9173377,-91.2350102,roof repair near me,2026-06-23,http://www.centuryroofing-iowa.com
"Roofpals, Inc dba Heartland Roof & Gutter",Wichita,Kansas,USA," 7126 W 48th St N, Wichita, KS 67205", (316) 260-6400,4.8,,37.772476,-97.5786903,roof repair near me,2026-06-23,https://www.roofn4u.com
Plumbing Solutions Of Wichita Inc,Wichita,Kansas,USA," 1645 S West St, Wichita, KS 67213", (316) 942-0019,4.8,,37.6587152,-97.3624991,roof leak repair near me,2026-06-23,https://www.plumbingsolutionsofwichita.com
Rhoden Roofing LLC,Wichita,Kansas,USA," 6601 E Kellogg Dr, Wichita, KS 67207", (316) 925-7956,4.9,,37.7165486,-97.3523112,roofing repair companies near me,2026-06-23,https://rhodenroofing.com
Robinson Roofing KC,Overland Park,Kansas,USA," 1110 Merriam Ln, Kansas City, KS 66103", (913) 626-6161,4.9,,38.9266362,-94.6806181,roof repair near me,2026-06-23,https://robinsonroofingkc.com
Christian Brothers Roofing LLC,Overland Park,Kansas,USA," 7514 N Oak Trafficway, Gladstone, MO 64118", (816) 453-7663,5,,39.231248,-94.8814766,roofing repair near me,2026-06-23,https://www.christianbrothersroofingllc.com
"W. R. MEADOWS, INC. Warehouse",Overland Park,Kansas,USA," 5231 E Front St, Kansas City, MO 64120", (816) 283-3240,5,,39.130314,-94.6702143,commercial roof repair near me,2026-06-23,https://www.wrmeadows.com
Shamrock Roofing and Construction,Overland Park,Kansas,USA," 7899 Frontage Rd, Overland Park, KS 66204", (913) 850-6556,4.9,,38.9020207,-94.6828966,roofing repair companies near me,2026-06-23,https://shamrockroofer.com
435 Roofing Inc.,Overland Park,Kansas,USA," 9265 Flint St, Overland Park, KS 66214", (913) 444-0725,5,,39.047144,-94.7209725,leaking roof repair near me,2026-06-23,http://www.435roofing.com
"Peak25 Roofing, LLC",Kansas City,Kansas,USA," 622 SW 3rd St Ste B, Lee's Summit, MO 64063", (816) 524-5100,5,,39.494743,-86.6049925,leaking roof repair near me,2026-06-23,https://peak25roofing.com
"Appelhanz Roofing, Inc.",Topeka,Kansas,USA," 2015 NW Brickyard Rd, Topeka, KS 66618", (785) 246-0006,4.8,,38.830139,-96.028882,roof repair near me,2026-06-23,https://www.appelhanzroofing.com
"W. R. MEADOWS, INC. Warehouse",Olathe,Kansas,USA,"5231 E Front St, Kansas City, MO 64120, United States", (816) 283-3240,5,,38.8866279,-94.820848,flat roof repair near me,2026-06-23,https://www.wrmeadows.com
Roofing Force,Olathe,Kansas,USA," 529 N Lindenwood Dr, Olathe, KS 66062", (913) 270-5440,4.8,,38.8942097,-94.8250485,roofing repair companies near me,2026-06-23,https://roofingforce.com
Robinson Roofing KC,Olathe,Kansas,USA," 1110 Merriam Lane, Kansas City, KS 66103-1652", (913) 489-7593,4.9,,38.8866279,-94.820848,leaking roof repair near me,2026-06-23,https://robinsonroofingkc.com
Bone Dry Roofing,Louisville,Kentucky,USA," 8130 New La Grange Rd, Louisville, KY 40222", (502) 513-6275,4.8,,38.2504875,-85.656902,roof repair near me,2026-06-23,https://www.bonedry.com
Mr. Roof Louisville,Louisville,Kentucky,USA," 3600 Chamberlain Ln suite 218, Louisville, KY 40241", (502) 653-2417,4.6,,38.2255565,-85.6574525,commercial roof repair near me,2026-06-23,https://www.mrroof.com
Fabricated Metals,Louisville,Kentucky,USA," 6333 Strawberry Ln, Louisville, KY 40214", (502) 363-2625,3.3,,38.164767,-86.0641656,metal roof repair near me,2026-06-23,https://fabricatedmetals.com
V.C. Veterans Contracting LLC,Lexington,Kentucky,USA," 120 Quinton Ct, Lexington, KY 40509", (859) 888-7663,5,,37.822395,-85.7679955,roof repair near me,2026-06-23,https://veteranscontractingllc.com
Unlimited Commercial and Residential Roofing,Lexington,Kentucky,USA," 1888 Goodpaster Way, Lexington, KY 40505", (859) 377-0116,5,,37.822395,-85.7679955,commercial roof repair near me,2026-06-23,https://www.commercialroofingky.net
Bone Dry Roofing,Lexington,Kentucky,USA," 1155 E New Circle Rd, Lexington, KY 40505", (859) 549-3945,4.8,,37.822395,-85.7679955,flat roof repair near me,2026-06-23,https://www.bonedry.com
Best Choice Roofing,Bowling Green,Kentucky,USA," 1711 Destiny Ln Ste 102, Bowling Green, KY 42104", (270) 279-8658,4.8,,36.8263521,-86.5989936,roof repair near me,2026-06-23,https://bestchoiceroofing.com
Keen Roofing,Bowling Green,Kentucky,USA," 2501 Crossings Blvd, Bowling Green, KY 42104", (270) 438-3321,4.5,,46.423669,-129.9427085,roof leak repair near me,2026-06-23,https://www.dcsroofingky.com
Build 2 Suit: Roofing Divison,Bowling Green,Kentucky,USA," 1550 Westen St, Bowling Green, KY 42104", (270) 938-3400,5,,36.8263521,-86.5989936,commercial roof repair near me,2026-06-23,http://www.b2sroofing.com
Mr. Roofer,Bowling Green,Kentucky,USA," 936 Carriage Ct, Bowling Green, KY 42103", (615) 630-0612,5,,46.423669,-129.9427085,leaking roof repair near me,2026-06-23,https://callmrroofer.com
Roof Angel,Owensboro,Kentucky,USA," 2212 Frederica St, Owensboro, KY 42301", (270) 681-0226,5,,37.7048151,-87.06892,roof repair near me,2026-06-23,https://roofangel.com
New Heights Roofing,Covington,Kentucky,USA," 521 Oliver St, Covington, KY 41014", (513) 490-9382,4.9,,39.0734923,-86.9366383,roof repair near me,2026-06-23,https://newheightsroof.com
CityTop Roofing and Exteriors,Covington,Kentucky,USA," 8 W Southern Ave, Covington, KY 41015", (859) 907-7663,5,,39.04757,-86.9425397,commercial roof repair near me,2026-06-23,http://citytoproofing.com
Shifflett Roofing,New Orleans,Louisiana,USA," 201 St Charles Ave, New Orleans, LA 70170", (504) 329-5665,4.9,,29.9554112,-90.0853767,roof repair near me,2026-06-23,http://www.shifflettroofing.com
Anything and Everything Roofing,New Orleans,Louisiana,USA," 11151 Lake Forest Blvd, New Orleans, LA 70128", (504) 810-4691,4.9,,29.9554112,-90.0853767,roofing repair near me,2026-06-23,http://www.anythingandeverythingnola.com
Simon Roofing,New Orleans,Louisiana,USA," 2121 N Causeway Blvd, Metairie, LA 70001", (504) 421-6142,5,,29.991797,-90.3074643,metal roof repair near me,2026-06-23,https://simonroofing.com
Roof Gecko,Baton Rouge,Louisiana,USA," 660 N Foster Dr, Baton Rouge, LA 70806", (225) 325-2063,4.9,,30.435528,-91.0911335,roof repair near me,2026-06-23,http://callroofgecko.com
Relief Restoration,Baton Rouge,Louisiana,USA," 20312 Highland Rd Ste DD, Baton Rouge, LA 70817", (225) 401-6152,4.9,,30.4477088,-91.0911335,emergency roof repair near me,2026-06-23,https://reliefrestorationbr.com
Premier South Roofing & Sheet Metal,Baton Rouge,Louisiana,USA," 9551 Interline Ave, Baton Rouge, LA 70809", (225) 757-6621,4.5,,30.4365301,-91.0640366,metal roof repair near me,2026-06-23,https://premiersouthla.com
"MRC Roofing, LLC",Shreveport,Louisiana,USA," 504 Anderson Ave, Shreveport, LA 71104", (318) 455-6593,4.9,,32.1255305,-93.6213965,roof repair near me,2026-06-23,https://www.mrcroofing.co
Priority Roofing LLC,Shreveport,Louisiana,USA," 5741 St Vincent Ave, Shreveport, LA 71108", (318) 202-2123,5,,32.1255305,-93.6213965,emergency roof repair near me,2026-06-23,https://priorityroofingllc.com
Hargrove Roofing,Shreveport,Louisiana,USA," 742 N Ashley Ridge Loop, Shreveport, LA 71106", (318) 626-5599,5,,32.4636111,-93.7737755,commercial roof repair near me,2026-06-23,https://www.hargroveroofing.com
Alchemy Roofing & Sheet Metal,Shreveport,Louisiana,USA," 6125 Interstate Drive Bay 11 & 12, Shreveport, LA 71109", (318) 426-8628,5,,32.4877758,-93.7932618,metal roof repair near me,2026-06-23,http://alchemyroofing.com
Roof Squad,Metairie,Louisiana,USA," 2815 Division Street #202, Metairie, LA 70002", (504) 294-5800,4.9,,30.0326605,-89.9459291,roof repair near me,2026-06-23,https://www.roofsquad.com
Lafayette Roofing,Lafayette,Louisiana,USA," 204 Toledo Dr, Lafayette, LA 70506", (337) 237-7663,4.6,,30.2298106,-92.2116491,roof repair near me,2026-06-23,http://lafayette-roofing.com
Cloteaux Roofing & Construction,Lafayette,Louisiana,USA," 1214 Rue du Belier, Lafayette, LA 70506", (337) 267-8121,5,,30.183926,-92.2453881,commercial roof repair near me,2026-06-23,http://www.cloteauxroofing.com
Roofing Contractors Lafayette LA,Lafayette,Louisiana,USA," 969 Coolidge St Ste 115, Lafayette, LA 70503", (337) 270-6496,5,,30.263278,-92.089001,metal roof repair near me,2026-06-23,https://roofingcontractorslafayettela.com
Superior Roofing,Portland,Maine,USA," 525 Riverside St, Portland, ME 04103", (207) 702-7663,4.9,,43.7471489,-70.4458965,roof repair near me,2026-06-23,https://superiorroofingofmaine.com
Horch Roofing,Portland,Maine,USA," 184 Main St, South Portland, ME 04106", (207) 223-7022,4.9,,45.1884795,-95.069858,emergency roof repair near me,2026-06-23,https://horchroofing.com
Above & Beyond LLC,Lewiston,Maine,USA," 524 Lincoln St, Lewiston, ME 04240", (207) 786-9966,4.9,,44.0774118,-72.643211,roof repair near me,2026-06-23,http://www.aboveandbeyondonline.com
Monastery Roofing,Lewiston,Maine,USA," 500 Lincoln St, Lewiston, ME 04240", (207) 440-8503,4.9,,44.0787021,-72.644261,emergency roof repair near me,2026-06-23,https://www.monasteryroofing.com
Custom Metal Roofs of Maine,Lewiston,Maine,USA," 4 Trident Dr, Lewiston, ME 04240", (207) 782-4684,4.7,,44.0823258,-72.6140046,metal roof repair near me,2026-06-23,http://metalroofingme.com
Freedom Roofing Maine,Bangor,Maine,USA," 1627 Union St #2, Bangor, ME 04401", (207) 659-6762,5,,45.2511189,-68.8814165,roof repair near me,2026-06-23,https://www.freedomroofingmaine.com
Roof Systems of Maine,Bangor,Maine,USA," 332 Target Industrial Cir, Bangor, ME 04401", (207) 947-0195,4.4,,44.704059,-69.2022515,commercial roof repair near me,2026-06-23,https://www.tectaamerica.com
Roofers Elite,Auburn,Maine,USA," 41 Millett Dr, Auburn, ME 04210", (207) 803-5564,4.9,,44.0838902,-72.6919222,roof repair near me,2026-06-23,https://rooferselitemaine.com
Four Twelve Roofing,Baltimore,Maryland,USA," 320 E 25½ St, Baltimore, MD 21218", (410) 989-7343,4.7,,39.3296631,-76.6257875,roof repair near me,2026-06-23,https://www.fourtwelvedev.com
Commercial Roofing Contractors,Baltimore,Maryland,USA," 3176 Wilkens Ave, Baltimore, MD 21223", (410) 947-2222,4.7,,39.2751064,-76.9730832,commercial roof repair near me,2026-06-23,http://410roofthis.com
Flat Roof Company,Baltimore,Maryland,USA," 6309 Fort Smallwood Rd Unit 2, Baltimore, MD 21226", (410) 615-7663,4.8,,39.2602896,-76.6235108,flat roof repair near me,2026-06-23,https://flatroofcompanyus.com
Simon Roofing,Baltimore,Maryland,USA," 1400 W Lombard St, Baltimore, MD 21223", (667) 209-6916,0,,46.423669,-129.9427085,metal roof repair near me,2026-06-23,https://simonroofing.com
Frederick Roof Repair,Frederick,Maryland,USA," 514 Lee Pl, Frederick, MD 21702", (301) 788-3061,5,,39.32861,-77.6259945,roof repair near me,2026-06-23,https://www.frederickroofrepair.com
Jack's Roofing Company,Rockville,Maryland,USA," 2345 Montgomery St, Silver Spring, MD 20910", (301) 585-4985,4.5,,39.0119476,-77.0985975,roof repair near me,2026-06-23,https://jacksroofing.com
Simon Roofing,Rockville,Maryland,USA," 45601 Woodland Rd, Sterling, VA 20166", (667) 209-6916,4.9,523,39.020802,-78.6428384,metal roof repair near me,2026-06-23,https://simonroofing.com
BRAX Roofing,Gaithersburg,Maryland,USA," 7851 Beechcraft Ave Ste A, Gaithersburg, MD 20879", (227) 258-0899,4.8,,39.1410592,-77.1856356,commercial roof repair near me,2026-06-23,https://braxroofing.com
GoodGood Roofing & Siding,Gaithersburg,Maryland,USA," 615 S Frederick Ave Ste 301, Gaithersburg, MD 20877", (301) 775-7317,5,,39.1410592,-77.1856356,roofing repair companies near me,2026-06-23,https://goodgoodrs.com
Monarch Roofing,Annapolis,Maryland,USA," 205 Canal St, Grasonville, MD 21638", (410) 541-5383,5,,39.003678,-76.5473195,roof repair near me,2026-06-23,https://monarchroofers.com
Monarch Roofing,Annapolis,Maryland,USA," 205 Canal Street, Grasonville, Maryland 21638", (410) 401-9931,,,38.9705181,-76.5473195,roofing repair companies near me,2026-06-23,https://monarchroofers.com
Benchmark Roofers,Annapolis,Maryland,USA," 500 Giddings Ave, Annapolis, MD 21401", (443) 454-1293,5,,38.857262,-76.5473195,leaking roof repair near me,2026-06-23,https://www.benchmarkroofers.com
Roof Hub,Boston,Massachusetts,USA," 240 E 8th St #1, Boston, MA 02127", (857) 237-7648,4.8,,42.3324745,-71.660085,roof repair near me,2026-06-23,https://myroofhub.com
Newton Fire & Flood,Boston,Massachusetts,USA," 3 Post Office Square Ste J, Acton, MA 01720", (617) 564-0777,4.1,,42.435931,-71.2004581,roof leak repair near me,2026-06-23,https://www.newtonfireandflood.com
Roxaco LLC,Boston,Massachusetts,USA," 7 Avenue D, Hopkinton, MA 01748", (508) 745-8237,5,1,42.198929,-72.7625544,flat roof repair near me,2026-06-23,https://roxacoroofing.com
BT Seamless Gutters,Worcester,Massachusetts,USA," 45 Gardner Rd, Hubbardston, MA 01452", (978) 939-5800,5,,42.2426959,-71.8192602,roofing repair near me,2026-06-23,https://www.btgutters.com
BT Seamless Gutters,Worcester,Massachusetts,USA,"45 Gardner Rd, Hubbardston, MA 01452, United States", (978) 939-5800,5,,42.2234615,-71.7298773,metal roof repair near me,2026-06-23,https://www.btgutters.com
Home City Roofing,Springfield,Massachusetts,USA," 203 Nassau Dr, Springfield, MA 01129", (413) 363-6958,4.6,,42.1351528,-72.5701415,roof repair near me,2026-06-23,https://homecityroofing.com
"Green Roof Solutions,LLC",Springfield,Massachusetts,USA," 21 Bramble Ave Unit B, West Springfield, MA 01089", (413) 977-7290,5,,42.2138878,-72.5854229,emergency roof repair near me,2026-06-23,http://www.greenroofsolutionsllc.com
Baxter Roof Repair & Installation,Cambridge,Massachusetts,USA," 1100 Massachusetts Ave suite 268, Cambridge, MA 02138", (617) 655-7503,5,,42.435931,-71.2004581,roof repair near me,2026-06-23,https://baxterroofrepaircambridge.com
SERVPRO of Lawrence,Lowell,Massachusetts,USA," 8 Blakelin St, Lawrence, MA 01841", (978) 970-7349,4.8,,42.711557,-71.7885002,roof repair near me,2026-06-23,https://www.servpro.com
Joe's Roofing Lowell,Lowell,Massachusetts,USA," 170 Mt Hope St, Lowell, MA 01854", (603) 952-1684,4.9,,42.6548616,-71.9421913,commercial roof repair near me,2026-06-23,https://joesroofingconstruction.com
JM Exteriors Roofing Siding,Lowell,Massachusetts,USA," 21 Wedge St, Lowell, MA 01851", (978) 635-6536,5,,42.6270991,-71.9439068,metal roof repair near me,2026-06-23,https://jmroofingsiding.com
Toro Roofing LLC,Quincy,Massachusetts,USA," 643 Adams Rd S, Quincy, WA 98848", (509) 398-4970,4.8,,47.0783048,-158.7941994,roof repair near me,2026-06-23,http://tororoofexperts.com
Secure Roofing,Quincy,Massachusetts,USA," 141 Bayside Rd, Quincy, MA 02171", (617) 770-9323,4.9,,42.2983156,-71.6160698,roofing repair near me,2026-06-23,https://quincyroofing.com
NEXT EXTERIORS,Detroit,Michigan,USA," 233 Church St, Mt Clemens, MI 48043", (844) 770-6398,5,,42.613131,-82.9769837,roof repair near me,2026-06-23,https://www.nextexteriorsmi.com
Great Lakes Gutter,Detroit,Michigan,USA," 12379 Globe St, Livonia, MI 48150", (734) 953-4067,4.9,,42.373597,-84.6296484,roofing repair near me,2026-06-23,https://www.michigangutters.com
Erie Home Roofing,Grand Rapids,Michigan,USA," 4039 40th St SE Ste 8, Kentwood, MI 49512", (616) 867-0980,4.5,,42.9575142,-85.6524769,roof repair near me,2026-06-23,https://roof.eriehome.com
Original Roofing Company,Grand Rapids,Michigan,USA," 2249 Wealthy St SE, Grand Rapids, MI 49506", (616) 384-9530,4.8,,42.9482528,-85.6564647,emergency roof repair near me,2026-06-23,https://originalroofing.com
Above Roofing,Grand Rapids,Michigan,USA," 2432 Oak Industrial Dr NE, Grand Rapids, MI 49505", (616) 328-5375,4.8,,42.9482528,-85.6688325,roof leak repair near me,2026-06-23,https://www.aboveroofing.com
Flat Roof Repair,Grand Rapids,Michigan,USA," 3536 Roger B Chaffee Memorial Blvd SE, Grand Rapids, MI 49548", (616) 221-2195,,,42.9648936,-85.600819,flat roof repair near me,2026-06-23,https://www.aboveroofing.com
Great Lakes Gutter,Warren,Michigan,USA," 12379 Globe Street, Livonia, Michigan 48150", (734) 953-4067,,,42.5312871,-83.0222887,roof leak repair near me,2026-06-23,https://www.michigangutters.com
Great Lakes Gutter,Warren,Michigan,USA,"12379 Globe St, Livonia, MI 48150, United States",(734) 953-4067,4.9,,42.5296923,-83.0509002,roofing repair companies near me,2026-06-23,https://www.michigangutters.com
CS Roofing Company / FixRoof,Lansing,Michigan,USA," 120 N Washington Square #340, Lansing, MI 48933", (517) 484-8418,4.9,,42.7342075,-85.7711393,roof repair near me,2026-06-23,https://csroofingcompany.com
Precision Roofing Services,Lansing,Michigan,USA," 319 Clinton St, Lansing, MI 48906", (517) 675-8509,4.8,,42.7492736,-85.7681577,roofing repair near me,2026-06-23,https://www.precisionroofingmi.com
Erie Home Roofing,Lansing,Michigan,USA," 2280 N Aurelius Rd, Holt, MI 48842", (517) 507-3060,4.6,,42.648522,-85.7423124,roof leak repair near me,2026-06-23,https://roof.eriehome.com
Todd Westphal Roofing,Minneapolis,Minnesota,USA," 1060 118th Ln NE, Blaine, MN 55434", (763) 783-1385,0,,44.8605321,-93.5981995,roof repair near me,2026-06-23,http://www.westphalroofing.com
Roof Repair PHD,Minneapolis,Minnesota,USA," 3201 N Humboldt Ave, Minneapolis, MN 55412", (612) 418-4240,5,,44.8605321,-93.5981995,roofing repair near me,2026-06-23,https://roofrepairphd.com
Cardinal Exteriors & Home Services,Minneapolis,Minnesota,USA," 730 Tower Dr #100, Medina, MN 55340", (952) 445-8638,4.2,,45.092093,-93.5226209,emergency roof repair near me,2026-06-23,https://www.cardinalexteriors.com
A & A Property Restoration,Minneapolis,Minnesota,USA," 7887 Fuller Rd #115, Eden Prairie, MN 55344", (952) 847-0500,4.8,,44.859794,-93.7854326,roof leak repair near me,2026-06-23,https://www.aa4help.com
Central Roofing Company,Minneapolis,Minnesota,USA," 4550 Main St NE, Minneapolis, MN 55421", (763) 572-0660,4.5,,44.8605321,-93.5981995,commercial roof repair near me,2026-06-23,https://www.centralroofing.com
"Twin City Roofing Construction Specialists, Inc.",Saint Paul,Minnesota,USA," 72 Ivy Ave W, St Paul, MN 55117", (651) 636-9640,4.4,,44.9207235,-93.257242,roof repair near me,2026-06-23,http://www.twincityroofing.com
Sellers Roofing Company,Saint Paul,Minnesota,USA," 801 Transfer Rd, St Paul, MN 55114", (651) 703-2336,4.8,,44.9941996,-93.257242,commercial roof repair near me,2026-06-23,https://roofingexpertsstpaul.com
Sela Roofing & Remodeling,Saint Paul,Minnesota,USA," 4521 MN-7 Ste A, Minneapolis, MN 55416", (612) 482-8213,4.9,,44.8092871,-93.1981525,flat roof repair near me,2026-06-23,https://www.selaroofing.com
Ronningen Roofing,Rochester,Minnesota,USA," 608 11th Ave NW, Rochester, MN 55901", (507) 281-8899,4.9,,44.0675459,-92.453715,roof repair near me,2026-06-23,https://ronningenroofing.com
Duluth Roofing Company,Duluth,Minnesota,USA," 4502 E Superior St, Duluth, MN 55804", (218) 727-8868,4.8,,47.052442,-92.0082096,roof repair near me,2026-06-23,https://www.duluthroofing.com
Empire Roofing,Duluth,Minnesota,USA," 1632 London Rd, Duluth, MN 55812", (218) 960-7308,4.7,,47.052442,-91.9449995,emergency roof repair near me,2026-06-23,https://www.empireroofingmn.com
R & R Roofing Inc.,Bloomington,Minnesota,USA," 8609 Lyndale Ave S, Bloomington, MN 55420", (952) 210-4988,5,,44.8774615,-93.257242,roof repair near me,2026-06-23,https://rrroofinginc.com
Twin Cities Contracting Services Inc.,Bloomington,Minnesota,USA," 140 W 98th St #202, Bloomington, MN 55420", (952) 405-6201,5,,44.8774615,-93.257242,commercial roof repair near me,2026-06-23,https://twincitiescontractingservices.com
Watkins Construction & Roofing,Jackson,Mississippi,USA," 1425 Lakeland Dr Ste 100B, Jackson, MS 39216", (601) 708-9617,4.9,,32.3489298,-90.166055,roof repair near me,2026-06-23,https://watkinsconstructioninc.com
"Strong Roofing,Inc.",Gulfport,Mississippi,USA," 2701 Pine Ave, Gulfport, MS 39501", (228) 313-3997,4.9,,30.4085685,-89.0684495,roof repair near me,2026-06-23,http://www.strongroofs.com
Roof Squad,Gulfport,Mississippi,USA," 13334 Seaway Rd, Gulfport, MS 39503", (228) 338-3003,5,,30.4351324,-167.1102405,emergency roof repair near me,2026-06-23,https://www.roofsquad.com
Southern Roofing & Renovations,Southaven,Mississippi,USA," 5960 Getwell Rd #101, Southaven, MS 38672", (662) 778-9008,4.9,,34.685865,-90.492284,roof repair near me,2026-06-23,https://southernrnr.com
Ultimate Roofing,Southaven,Mississippi,USA," 8344 Airways Blvd, Southaven, MS 38671", (662) 331-3000,4.9,,34.685865,-90.492284,emergency roof repair near me,2026-06-23,https://ultimate-roofing.com
CentiMark Corporation,Southaven,Mississippi,USA," 671 S Rowlett St, Collierville, TN 38017", (901) 786-6880,4.8,,34.5644335,-90.492284,commercial roof repair near me,2026-06-23,https://www.centimark.com
Simon Roofing,Southaven,Mississippi,USA," 2010 W Poplar Ave, Collierville, TN 38017", (901) 794-2502,5,,34.5644335,-90.492284,metal roof repair near me,2026-06-23,https://simonroofing.com
Pine Belt Gutters & Baggett Roofing,Hattiesburg,Mississippi,USA," 1643 US-11 Suite B, Petal, MS 39465", (601) 203-1020,5,,31.4074189,-89.2525914,roof repair near me,2026-06-23,https://www.pinebeltgutters.com
Integrity Roofing,Biloxi,Mississippi,USA," 249 Beauvoir Rd Ste C4, Biloxi, MS 39531", (228) 295-8300,4.9,,30.7724225,-89.03751,roof repair near me,2026-06-23,http://roofsbyintegrity.com
Roof Check Contracting,Kansas City,Missouri,USA," 1819 Grand Blvd, Kansas City, MO 64108", (816) 799-7663,4.9,,39.0876746,-94.5940341,emergency roof repair near me,2026-06-23,https://www.goroofcheck.com
Garcia Roofing Kansas City,Kansas City,Missouri,USA," 119 W Gregory Blvd, Kansas City, MO 64113", (816) 286-7387,,,39.0876746,-94.5583706,roofing repair companies near me,2026-06-23,http://www.garciaroofing.biz
Kansas City Flat Roof Co. LLC,Kansas City,Missouri,USA," 107 W 9th St 2nd floor, Kansas City, MO 64105", (816) 207-5000,5,,39.103295,-104.3404578,leaking roof repair near me,2026-06-23,http://www.kansascityflatroof.com
Paul Davis Restoration of Metro West St.Louis,Saint Louis,Missouri,USA," 1129 North Warson Road, St. Louis, MO 63132", (314) 408-6620,4.7,,38.6287297,-90.3154937,roof repair near me,2026-06-23,https://metrowest-stl.pauldavis.com
Paul Davis Restoration of Metro West St.Louis,Saint Louis,Missouri,USA," 1129 N Warson Rd, St. Louis, MO 63132", (314) 408-6620,4.7,,38.6296704,-90.500588,roofing repair near me,2026-06-23,https://metrowest-stl.pauldavis.com
PolyArmor Roof Repair & Restoration,Saint Louis,Missouri,USA," 9449 Watson Industrial Park, St. Louis, MO 63126", (314) 736-1202,5,,38.5626,-90.5316243,emergency roof repair near me,2026-06-23,https://polyarmorroof.com
Taylor Roofing,Saint Louis,Missouri,USA," 8705 Shiloh Valley Township Line Rd, Lebanon, IL 62254", (618) 233-2424,4.3,,38.6287297,-90.3131828,commercial roof repair near me,2026-06-23,https://www.taylorroof.com
Suntide Companies,Saint Louis,Missouri,USA," 12981 Maurer Industrial Dr Ste 200, St. Louis, MO 63127", (314) 934-5440,5,,38.5819084,-90.2777241,flat roof repair near me,2026-06-23,https://www.suntidecompanies.com
KennCo,Springfield,Missouri,USA," 580 W Farm Rd 178, Springfield, MO 65810", (417) 881-8147,4.4,,37.1956353,-93.3009489,roof repair near me,2026-06-23,https://www.kenncoconstruction.com
Roofing Company Springfield,Springfield,Missouri,USA," 1749 S Campbell Ave, Springfield, MO 65807", (417) 363-2588,4.8,,37.1834496,-94.5151737,metal roof repair near me,2026-06-23,https://roofingcompanyspringfield.com
A-1 Guarantee Roofing,Springfield,Missouri,USA," 5398 W Chestnut Expy, Springfield, MO 65802", (417) 863-0613,4.7,,37.2115068,-93.5451018,roofing repair companies near me,2026-06-23,http://www.a1roof.net
ROOF U.S.A.,Columbia,Missouri,USA," 4501 Interstate 70 Dr SE, Columbia, MO 65201", (573) 446-3233,5,,38.9394694,-92.3506217,roof repair near me,2026-06-23,https://www.roofusconstruction.com
Ron's Roofing Inc.,Independence,Missouri,USA," 15636 E US Hwy 24, Independence, MO 64050", (816) 252-9496,4.9,,39.1130634,-94.5428602,roof repair companies near me,2026-06-23,https://ronsroofingcompany.com
US Roof,Billings,Montana,USA," 2180 Overland Ave #104, Billings, MT 59102", (406) 601-1010,4.6,,45.7744925,-108.5725415,roof repair near me,2026-06-23,http://www.usroof.net
US Roof,Billings,Montana,USA,"2180 Overland Ave #104, Billings, MT 59102, United States", (406) 601-1010,4.6,,45.961626,-108.2175566,emergency roof repair near me,2026-06-23,http://www.usroof.net
Center Construction Roofing,Albany,New York,USA," 108 Kent St, Albany, NY 12206", (518) 520-4511,4.9,,42.876531,-73.9882035,commercial roof repair near me,2026-06-23,https://centerconstructionus.com
Replace Your Roof Albany,Albany,New York,USA," 38 Robert Dr, Albany, NY 12205", (518) 708-8271,,,42.876531,-73.9882035,flat roof repair near me,2026-06-23,https://klausroofingny.com
Roof Medic,Charlotte,North Carolina,USA," 7207 Matthews-Mint Hill Rd, Charlotte, NC 28227", (704) 228-7788,4.9,,35.2705495,-80.773209,roof repair near me,2026-06-23,https://roofmedic.com
Charlotte Roofing Specialists,Charlotte,North Carolina,USA," 3605-B Latrobe Dr, Charlotte, NC 28211", (704) 610-6616,4.9,,35.1130654,-80.814898,commercial roof repair near me,2026-06-23,https://www.charlotteroofing.com
Simon Roofing,Charlotte,North Carolina,USA," 169 Harrisburg Veterans Rd, Harrisburg, NC 28075", (866) 641-7663,3,,35.1987022,-80.7620862,metal roof repair near me,2026-06-23,https://simonroofing.com
V.C. Veterans Contracting,Raleigh,North Carolina,USA," 1325 Kirkland Rd Ste 109, Raleigh, NC 27603", (919) 726-7663,5,,35.8219921,-78.6590892,roof repair near me,2026-06-23,https://veteranscontractingllc.com
Triangle Reconstruction,Raleigh,North Carolina,USA," 101 Woodwinds Industrial Ct Ste f, Cary, NC 27511", (919) 213-6956,4.8,,35.761291,-78.9728873,roof leak repair near me,2026-06-23,https://www.trianglecrawlspaces.com
"Roofwerks, Inc.",Raleigh,North Carolina,USA," 5413 Hillsborough St, Raleigh, NC 27606", (919) 852-2660,4.8,,35.7901079,-79.0210133,commercial roof repair near me,2026-06-23,http://www.roofwerks.com
"Old Timers Roofing, Inc.",Greensboro,North Carolina,USA," 3127 Battleground Ave, Greensboro, NC 27408", (336) 937-7663,4.7,,36.0672822,-79.8655048,roof repair near me,2026-06-23,https://oldtimersroofing.com
Skywalker Roofing Company,Greensboro,North Carolina,USA," 301 S Elm St Ste 523, Greensboro, NC 27401", (336) 717-0234,4.9,,36.0672822,-79.8655048,commercial roof repair near me,2026-06-23,https://skywalkerroofingnc.com
"Chief Roofing, Inc.",Durham,North Carolina,USA," 510 Cornerstone Ct, Hillsborough, NC 27278", (919) 732-5028,4.8,,36.061318,-79.2396973,roof repair near me,2026-06-23,https://chiefroofinginc.com
The Roof Mentors,Winston-Salem,North Carolina,USA," 427 W End Blvd, Winston-Salem, NC 27101", (336) 920-7245,4.9,,36.0887007,-80.2645543,roof repair near me,2026-06-23,https://theroofmentors.com
Mighty Dog Roofing of Winston-Salem,Winston-Salem,North Carolina,USA," 4309 Old Walkertown Rd, Winston-Salem, NC 27105", (336) 932-8567,4.9,,36.0536446,-80.2645543,emergency roof repair near me,2026-06-23,https://www.mightydogroofing.com
"Old Timers Roofing, Inc.",Winston-Salem,North Carolina,USA," 930 W 4th St #200, Winston-Salem, NC 27101", (336) 937-7663,4.7,,36.0536446,-80.2645543,flat roof repair near me,2026-06-23,https://oldtimersroofing.com
The Roof Mentors,Fayetteville,North Carolina,USA," 1903 Bragg Blvd, Fayetteville, NC 28301", (910) 987-2727,4.9,,35.0897779,-78.9130315,roof repair near me,2026-06-23,https://theroofmentors.com
Blue Ribbon Roofing & Roof Repairs,Fayetteville,North Carolina,USA," 1740 Owen Dr Ste C, Fayetteville, NC 28304", (910) 483-7663,4.9,,35.0897779,-78.9130315,roof leak repair near me,2026-06-23,https://blueribbonroofingnc.com
Hillside Metal Roofing,Fayetteville,North Carolina,USA," 602 School St, Fayetteville, NC 28301", (910) 857-5919,4.9,,35.0925605,-78.9130315,metal roof repair near me,2026-06-23,https://metalroofingfayetteville.com
Fargo Roofing & Siding,Fargo,North Dakota,USA," 3222 4th Ave S, Fargo, ND 58103", (701) 371-7204,4.9,,46.8164735,-96.9127653,roof repair near me,2026-06-23,https://www.fargoroofing.com
J & J Repairs & Roofing LLC,Fargo,North Dakota,USA," 347 23rd St N, Fargo, ND 58102", (701) 476-7528,4.6,,46.8147503,-96.9127653,roof leak repair near me,2026-06-23,https://www.jjroofingfargo.com
ROOFTOP - Your Roofing Contractor.,Bismarck,North Dakota,USA," 6962 Aurora Loop #1, Bismarck, ND 58503", (701) 751-7833,4.9,,46.8163175,-100.8256395,roof repair near me,2026-06-23,https://www.rooftoprenovation.com
All Seasons Roofing,Bismarck,North Dakota,USA," 1205 Burlington Dr, Bismarck, ND 58504", (701) 773-4087,4.9,,46.8056716,-100.8256395,roof leak repair near me,2026-06-23,https://allseasonsexteriors.com
5 Star Roofing and Contracting,Bismarck,North Dakota,USA," 3320 Hamilton St Unit 3, Bismarck, ND 58503", (701) 290-2916,4.7,,46.8048905,-100.7792461,metal roof repair near me,2026-06-23,https://5starroofingandcontracting.com
Trinity Exteriors - Grand Forks,Grand Forks,North Dakota,USA," 3150 Gateway Dr D, Grand Forks, ND 58203", (701) 997-7663,5,,46.4419165,-96.7664129,roof repair near me,2026-06-23,https://www.trinityexteriors.com
Northern Skies Roofing,Minot,North Dakota,USA,"Minot, ND, United States", (701) 721-3188,5,,47.8750516,-121.7417838,roof repair near me,2026-06-23,https://northernskiesroofing.com
Asset Roofing,West Fargo,North Dakota,USA," 3523 45th St S suit 100, Fargo, ND 58104", (701) 552-2533,5,,46.816377,-96.9212875,roof leak repair near me,2026-06-23,https://www.assetservicesllc.net
Benchmark Roofing & Restoration,Columbus,Ohio,USA," 668 Radio Dr, Lewis Center, OH 43035", (614) 236-2000,4.5,,39.9888613,-82.9849025,roof repair near me,2026-06-23,https://benchmarkroofing.com
Cap City Restoration,Columbus,Ohio,USA," 1723 Old Leonard Ave, Columbus, OH 43219", (614) 749-6005,4.9,,39.9888613,-82.9849025,roof repair companies near me,2026-06-23,https://www.capcityrestoration.com
Roof Revivers,Columbus,Ohio,USA," 1020 Taylor Station Rd ste f, Gahanna, OH 43230", (614) 626-0387,4.9,,40.0273558,-82.9849025,leaking roof repair near me,2026-06-23,https://www.roofrevivers.com
Mr. Roof Cleveland,Cleveland,Ohio,USA," 9800 Rockside Rd #600, Valley View, OH 44125", (216) 777-5874,4.8,,41.4480817,-81.6727884,roof repair near me,2026-06-23,https://www.mrroof.com
Ohio Roofing Siding and Slate LLC,Cleveland,Ohio,USA," 2114 Broadview Rd, Cleveland, OH 44109", (216) 862-4553,4.9,,41.4501968,-81.7194682,roofing repair near me,2026-06-23,http://www.ohioroofingsidingandslatellc.com
Cleveland Commercial Roofing,Cleveland,Ohio,USA," 1478 St Clair Ave NE, Cleveland, OH 44114", (216) 771-0447,5,,41.4501968,-81.701161,commercial roof repair near me,2026-06-23,http://www.clevelandroofs.com
Simon Roofing,Cleveland,Ohio,USA," 1380 Highland Rd, Macedonia, OH 44056", (216) 299-7211,2.2,,41.4501968,-81.7042955,metal roof repair near me,2026-06-23,https://simonroofing.com
1st Choice Roofing Company,Cleveland,Ohio,USA," 10311 Berea Rd, Cleveland, OH 44102", (216) 227-7755,4.6,,41.4978311,-81.6712024,roof repair companies near me,2026-06-23,https://1stchoiceroofing.com
Williams Brothers Roof Repair,Cincinnati,Ohio,USA," 255 E 5th St, Cincinnati, OH 45202", (513) 951-8300,4.8,,39.101557,-84.8132781,roof repair near me,2026-06-23,https://williamsbrothersroofrepair.com
Lady On The Roof­­®,Cincinnati,Ohio,USA," 4240 Airport Rd, Cincinnati, OH 45226", (513) 231-0430,5,,39.1889071,-84.4583279,emergency roof repair near me,2026-06-23,https://ladyontheroof.com
HKC Roofing & Sheet Metal,Cincinnati,Ohio,USA," 6161 Wiehe Rd, Cincinnati, OH 45237", (513) 371-1841,4.8,,39.1692307,-84.4618512,commercial roof repair near me,2026-06-23,http://www.hkcroofing.com
Roofing419 - Toledo Roofing Company,Toledo,Ohio,USA," 1640 Coining Dr, Toledo, OH 43612", (419) 509-0456,5,,40.7687755,-83.6034816,roof repair near me,2026-06-23,https://roofing419.com
Salgau Roofing,Toledo,Ohio,USA," 2075 Starr Ave, Toledo, OH 43605", (419) 691-9641,4.8,,40.7687755,-83.6034816,roofing repair near me,2026-06-23,https://salgauroofing.com
"Holt Roofing Company, Inc.",Toledo,Ohio,USA," 3947 Funston St, Toledo, OH 43612", (419) 478-2900,4.7,,40.7687755,-83.6034816,roof leak repair near me,2026-06-23,https://holtroofing.com
Canaan Companies,Toledo,Ohio,USA," 320 21st St, Toledo, OH 43604", (419) 842-8373,4.2,,40.7687755,-83.6034816,roof repair companies near me,2026-06-23,https://www.canaancompanies.com
Heritage Roofing Company,Akron,Ohio,USA," 1475 Saxe Rd, Mogadore, OH 44260", (234) 417-0770,4.9,,41.0526257,-81.5164939,roof repair near me,2026-06-23,https://roofsbyheritage.com
Legacy Roofing Services,Akron,Ohio,USA," 800 Killian Rd, Akron, OH 44319", (330) 576-8408,4.6,,41.0878524,-81.5326145,roofing repair near me,2026-06-23,https://www.legacyroofing.com
Roofsmith Restoration,Akron,Ohio,USA," 122 Western Ave Ste B, Akron, OH 44313", (330) 822-4245,4.7,,41.115567,-81.7291174,flat roof repair near me,2026-06-23,https://roofsmith-restoration.com
Buckeye Home Services,Dayton,Ohio,USA," 866 Hillrose Ave, Dayton, OH 45404", (937) 351-5112,4,,39.7444331,-84.1614637,roof repair near me,2026-06-23,https://www.buckeyehomeservices.com
Castle Roofing,Dayton,Ohio,USA," 5005 Nebraska Ave, Huber Heights, OH 45424", (937) 230-0091,4.2,,39.7444331,-84.1742391,roofing repair near me,2026-06-23,https://www.castleroofingdayton.com
OKC Roofers,Oklahoma City,Oklahoma,USA," 8901 S Santa Fe Ave Ste h, Oklahoma City, OK 73139", (405) 796-8858,4.9,,35.5283479,-97.5545428,roof repair near me,2026-06-23,https://okcroofers.com
CentiMark Corporation,Oklahoma City,Oklahoma,USA," 14800 Bristol Park Blvd, Edmond, OK 73013", (405) 384-7633,4,,35.5069654,-97.5535827,commercial roof repair near me,2026-06-23,https://www.centimark.com
Callahan Steel Buildings,Oklahoma City,Oklahoma,USA," 448 E State Hwy 152, Mustang, OK 73064", (405) 237-6375,4.3,,35.391322,-98.0209336,flat roof repair near me,2026-06-23,https://www.callahansteel.com
A-Best Roofing,Tulsa,Oklahoma,USA," 1411 E 3rd St, Tulsa, OK 74120", (539) 242-7966,4.7,,36.1072403,-95.9378612,roof repair near me,2026-06-23,https://abestroofing.com
24 Hour Roof US,Tulsa,Oklahoma,USA," 4877 S 69th E Ave, Tulsa, OK 74145", (918) 949-8200,4.9,,36.1072403,-95.9378612,emergency roof repair near me,2026-06-23,http://24hourroofus.com
Roof Leaks and More,Tulsa,Oklahoma,USA," 8990 S Sheridan Rd suite b, Tulsa, OK 74133", (918) 202-8184,5,,36.1072403,-95.935009,roof leak repair near me,2026-06-23,https://roofleaksandmore.com
Roof Nerds - Commercial Roofing Tulsa,Tulsa,Oklahoma,USA," 1441 E 41st St, Tulsa, OK 74105", (918) 973-1010,5,,36.1048915,-96.1247833,commercial roof repair near me,2026-06-23,http://www.okroofnerds.com
Arrowhead Roofing,Tulsa,Oklahoma,USA," 5810 S 118th E Ave Ste A, Tulsa, OK 74146", (918) 743-9257,4.9,,36.1276492,-95.8780012,metal roof repair near me,2026-06-23,https://www.arrowheadroofing.com
Legend Roofs Roofing Contractor Norman Roof Repair,Norman,Oklahoma,USA," 2413 E Tecumseh Rd, Norman, OK 73071", (405) 353-9125,5,,35.2440202,-97.4506734,roof repair near me,2026-06-23,https://legendroofsok.com
Destiny Roofing,Broken Arrow,Oklahoma,USA," 707 S Lincoln Ave, Wagoner, OK 74467", (918) 228-7377,4.4,,35.953443,-95.4662257,roof repair near me,2026-06-23,https://www.destinyroofingwagoner.com
Destiny Roofing,Broken Arrow,Oklahoma,USA," 707 S Lincoln Ave, Wagoner, OK 74467, United States", (918) 228-7377,4.4,,36.0478784,-95.8100687,commercial roof repair near me,2026-06-23,https://www.destinyroofingwagoner.com
Solid Roofing,Broken Arrow,Oklahoma,USA," 530 W Dallas St, Broken Arrow, OK 74012", (918) 205-7776,5,,36.0478784,-95.8100687,roofing repair companies near me,2026-06-23,https://solidroofs.com
Callahan Steel Buildings,Edmond,Oklahoma,USA," 448 East State Highway 152, Mustang, OK 73064", (405) 240-9173,,,35.6720949,-97.4768498,roofing repair near me,2026-06-23,https://www.callahansteel.com
OKC Roofers,Edmond,Oklahoma,USA," 2524 N Broadway #522, Edmond, OK 73034", (405) 796-8858,5,,35.6720949,-97.498964,emergency roof repair near me,2026-06-23,https://okcroofers.com
Metal Roof Contractors,Edmond,Oklahoma,USA," 5001 W Waterloo Rd, Edmond, OK 73025", (405) 359-6111,5,,35.7264219,-97.7008429,metal roof repair near me,2026-06-23,http://www.metalroofcontractorsok.com
Big League Roofing Company Edmond,Edmond,Oklahoma,USA," 2524 N Broadway, Edmond, OK 73034", (405) 913-7193,5,,35.6720949,-97.4768498,roof repair companies near me,2026-06-23,https://www.roofingcompanyedmondok.com
dK Exteriors LLC,Portland,Oregon,USA," 107 N Edwards St, Newberg, OR 97132", (503) 487-6055,4.7,,45.300671,-123.1242283,roof repair near me,2026-06-23,https://dkexteriors.convertri.com
CentiMark Corporation,Portland,Oregon,USA," 3004 NE 181st Ave, Portland, OR 97230", (503) 535-2555,3.9,,45.4891636,-122.645458,commercial roof repair near me,2026-06-23,https://www.centimark.com
Simon Roofing,Portland,Oregon,USA," 106 NW 139th St, Vancouver, WA 98685", (206) 200-4201,4.7,,45.722216,-122.8224313,metal roof repair near me,2026-06-23,https://simonroofing.com
Huey & Sons Roofing,Eugene,Oregon,USA," 2935 Allane Ln, Eugene, OR 97402", (541) 688-1112,4.8,,44.0737214,-123.2938952,roof repair near me,2026-06-23,http://hueyandsonsroofing.com
BEST Roofing & Waterproofing,Eugene,Oregon,USA," 1574 Coburg Rd #280, Eugene, OR 97401", (541) 844-2378,4.9,,44.0564133,-123.0802974,emergency roof repair near me,2026-06-23,https://bestroofingoregon.com
Buzzline Roofing,Eugene,Oregon,USA," 2585 Roosevelt Blvd a1, Eugene, OR 97402", (541) 515-4202,4.9,,44.0642463,-123.0802974,commercial roof repair near me,2026-06-23,https://www.buzzlineroofing.com
Oregon Metal Roofing and Gutters,Eugene,Oregon,USA," 207 E 5th Ave Ste 234, Eugene, OR 97401", (541) 649-1507,4.9,,44.0617791,-123.0802974,metal roof repair near me,2026-06-23,https://www.oregonmetalroofingandgutters.com
R&H Roofing & Siding,Salem,Oregon,USA," 4608 Idaho Ave NE, Salem, OR 97305", (971) 718-8987,5,,44.9393081,-123.0432878,roof repair near me,2026-06-23,https://rhroofingsiding.com
Valley Roofing,Salem,Oregon,USA," 4910 Turner Rd SE, Salem, OR 97317", (503) 383-1406,4.9,,44.9393081,-123.0432878,roofing repair near me,2026-06-23,https://www.valleyroofing.org
Gresham Roofing and Construction,Gresham,Oregon,USA," 2525 SE 287th Ave, Troutdale, OR 97060", (503) 492-7663,4.8,,45.3071894,-122.3206519,roof repair near me,2026-06-23,https://www.greshamroofing.com
New Generation Roofing,Gresham,Oregon,USA," 122 NW 14th Pl, Gresham, OR 97030", (503) 519-6421,5,,45.3071894,-122.3206519,leaking roof repair near me,2026-06-23,https://www.newgeneration-roofing.com
The Roof Doctor,Philadelphia,Pennsylvania,USA," 2315 A Sansom St, Philadelphia, PA 19103", (215) 533-3333,4.7,,39.9520387,-75.3313669,roof repair near me,2026-06-23,https://www.roofdoctorphilly.com
Team Work Home Improvement llc,Philadelphia,Pennsylvania,USA," 604 Assunpink Blvd, Hamilton Township, NJ 08619", (609) 947-4076,5,,40.246279,-74.8814613,emergency roof repair near me,2026-06-23,https://www.google.com
Greenawalt Roofing Company,Philadelphia,Pennsylvania,USA," 1916 Old Cuthbert Rd #15, Cherry Hill Township, NJ 08034", (609) 245-6225,4.9,,39.9494304,-75.3114935,roof leak repair near me,2026-06-23,https://greenawaltroofing.com
P & G Roofing,Philadelphia,Pennsylvania,USA," 204 US-130, Burlington, NJ 08016", (609) 246-3102,4.7,,40.0114434,-75.1020177,commercial roof repair near me,2026-06-23,https://www.pgroofingnj.com
Simon Roofing,Philadelphia,Pennsylvania,USA," 3200 Ridge Pike, Eagleville, PA 19403", (610) 844-8213,5,106,40.156932,-75.5590033,metal roof repair near me,2026-06-23,https://simonroofing.com
Big Joe's Roofing,Philadelphia,Pennsylvania,USA," 7352 Melrose St, Philadelphia, PA 19136", (267) 310-7303,4.9,,40.0114434,-75.0835257,roof repair companies near me,2026-06-23,https://www.bigjoesroofing.com
MY Pittsburgh Roofing,Pittsburgh,Pennsylvania,USA," 4560 McKnight Rd, Pittsburgh, PA 15237", (412) 218-7082,5,,40.4400416,-79.9991514,roof repair near me,2026-06-23,http://my-pittsburghroofing.com
AA Roofing,Pittsburgh,Pennsylvania,USA," 149 Houston St, Pittsburgh, PA 15223", (724) 351-0488,5,,40.4127059,-79.9869486,roof leak repair near me,2026-06-23,https://www.aaroofingpgh.com
PITTSBURGH COMMERCIAL ROOFING,Pittsburgh,Pennsylvania,USA," 461 Cochran Rd #232, Pittsburgh, PA 15228", (412) 567-9100,4.7,,40.3831041,-80.2045984,commercial roof repair near me,2026-06-23,https://pittsburghcommercialroofing.com
Roofera,Allentown,Pennsylvania,USA," 277 E South St, Allentown, PA 18109", (484) 429-4411,5,,40.5780216,-75.5068118,roof repair near me,2026-06-23,https://roofera.com
ROOFX Roofing,Allentown,Pennsylvania,USA," 3416 Hamilton Blvd, Allentown, PA 18103", (484) 206-5123,5,,40.5780216,-75.5144944,commercial roof repair near me,2026-06-23,https://roofx.com
Stormtrooper Roofing,Allentown,Pennsylvania,USA," 40 S 5th St, Allentown, PA 18101", (215) 885-7663,5,,40.5731032,-75.5144944,metal roof repair near me,2026-06-23,http://215885roof.com
Angelo's Roofing Inc.,Erie,Pennsylvania,USA," 1504 Cherry St, Erie, PA 16502", (814) 490-8483,5,,46.423669,-129.9427085,roof repair near me,2026-06-23,https://angelosroof.com
Reading Roofing Company,Reading,Pennsylvania,USA," 1842 Kutztown Rd, Reading, PA 19604", (610) 939-9390,4.3,,40.3497881,-75.9445414,roof repair near me,2026-06-23,https://www.readingroofingpa.com
"The Helping Company, LLC",Reading,Pennsylvania,USA," 306 Kenhorst Blvd, Reading, PA 19607", (610) 234-2210,4.9,,40.3442505,-76.0762455,emergency roof repair near me,2026-06-23,https://thcexteriors.com
McDowell Roofing and Construction,Reading,Pennsylvania,USA," 116 E Walnut St, Reading, PA 19607", (484) 403-5112,5,,40.3442505,-76.0762455,commercial roof repair near me,2026-06-23,https://www.mcdowellroofingllc.com
Quality Roofing Express,Scranton,Pennsylvania,USA," 614 N Rebecca Ave, Scranton, PA 18504", (570) 614-3914,4.6,,41.2474939,-76.3914709,roof repair near me,2026-06-23,https://www.qualityroofingexpress.org
Erie Home Roofing,Scranton,Pennsylvania,USA," 2400 Stafford Ave Ste 400, Scranton, PA 18505", (272) 379-9113,4.8,,41.2474939,-76.3914709,roofing repair near me,2026-06-23,https://eriehome.com
BF Construction,Scranton,Pennsylvania,USA," 408 Electric St, Scranton, PA 18509", (570) 498-3764,4.9,,41.3497195,-75.614123,roof leak repair near me,2026-06-23,http://bfconstructionnepa.com
USA Home Improvement Solutions/USA Metal Roofs,Scranton,Pennsylvania,USA," 317 S Blakely St, Dunmore, PA 18512", (877) 872-3398,4.7,,41.2474939,-76.3914709,metal roof repair near me,2026-06-23,https://usametalroofs.net
Clean Care of New England,Providence,Rhode Island,USA," 850 Wellington Ave, Cranston, RI 02910", (401) 336-5275,4.8,,41.5573165,-71.4979145,roof repair near me,2026-06-23,https://www.cleancare.net
Trident Waterproofing,Providence,Rhode Island,USA," 2633 Main Rd, Tiverton, RI 02878", (401) 683-0551,4.8,,41.5573165,-71.4979145,roofing repair near me,2026-06-23,https://tridentwaterproofing.com
i-Con Construction Corp.,Providence,Rhode Island,USA," 1211 Grand Army of the Republic Hwy, Swansea, MA 02777", (508) 300-9339,4.9,,41.991306,-71.6835355,commercial roof repair near me,2026-06-23,https://www.i-conconstructioncorp.com
Atlantic Exteriors,Warwick,Rhode Island,USA," 274 Woonasquatucket Ave, North Providence, RI 02911", (401) 934-0700,4.8,,41.5573165,-71.4979145,metal roof repair near me,2026-06-23,https://atlanticexteriorsri.com
Elite Roof and Solar - Columbia,Columbia,South Carolina,USA," 1201 Main St #1980, Columbia, SC 29201", (803) 970-6869,5,,34.046415,-81.0338345,roof repair near me,2026-06-23,https://eliteroofandsolar.com
"L.A. Roofing, LLC",Columbia,South Carolina,USA," 1 Windsor Cove #107, Columbia, SC 29223", (844) 505-7663,4.9,,34.0243276,-81.0273044,metal roof repair near me,2026-06-23,http://www.laroofingllc.com
Modern Roofing,Columbia,South Carolina,USA," 6291 St Andrews Rd, Columbia, SC 29212", (803) 839-0355,4.9,,34.0606768,-81.3168737,roofing repair companies near me,2026-06-23,http://modernroofingusa.com
Prince Roofing & Construction,Charleston,South Carolina,USA," 1306 State Rd S-8-449, Summerville, SC 29486", (843) 771-0430,4.9,,32.5125304,-80.6891702,roof repair near me,2026-06-23,https://www.princeroofingandconstruction.com
843 Roof LLC,Charleston,South Carolina,USA," 460 King St Ste 200 Unit 10, Charleston, SC 29403", (843) 900-7663,5,,32.9576492,-79.9604727,leaking roof repair near me,2026-06-23,http://www.843roof.com
5 Stars Roofing,North Charleston,South Carolina,USA," 2157 Rich St Ste 501, North Charleston, SC 29406", (843) 300-8400,4.8,,32.9576492,-79.9604727,roof repair near me,2026-06-23,http://5starsroofing.com
Patriot Roofing,North Charleston,South Carolina,USA," 3125 Ashley Phosphate Rd #125, North Charleston, SC 29418", (843) 350-2975,4.9,,32.9576492,-79.9604727,roofing repair near me,2026-06-23,http://www.patriotroofingsc.com
Big Bear Roofing,North Charleston,South Carolina,USA," 4500 Leeds Ave Suite 200 W, North Charleston, SC 29405", (843) 819-7650,4.8,,32.8459485,-80.6343936,roof leak repair near me,2026-06-23,https://www.bigbearrfg.com
Charleston Roofs + Windows,North Charleston,South Carolina,USA," 5900 Core Rd Ste 402, North Charleston, SC 29406", (843) 350-6250,4.9,,32.9005334,-80.6327194,commercial roof repair near me,2026-06-23,https://charlestonroofsandwindows.com
Southline Roofing & Exteriors,North Charleston,South Carolina,USA," 7333 Peppermill Pkwy, North Charleston, SC 29418", (843) 471-2625,4.9,,32.9227117,-80.6869452,metal roof repair near me,2026-06-23,https://www.southlineroofing.com
Southline Roofing & Exteriors,Mount Pleasant,South Carolina,USA," 3015 Dunes W Blvd Ste 505, Mt Pleasant, SC 29466", (843) 471-2625,4.9,,32.5608679,-80.4469965,roof repair near me,2026-06-23,https://www.southlineroofing.com
Southeastern Roofing & Exteriors,Mount Pleasant,South Carolina,USA," 1128 Fulton Hall Ln, Mt Pleasant, SC 29466", (843) 890-8833,5,,32.9108469,-79.8377154,emergency roof repair near me,2026-06-23,https://www.southeasternroofingsc.com
Willow Ash Roofing,Mount Pleasant,South Carolina,USA," 1514 Mathis Ferry Rd, Mt Pleasant, SC 29464", (843) 326-0081,4.9,,32.9108469,-79.8377154,roof leak repair near me,2026-06-23,https://willowashroofing.com
Roofing USA,Mount Pleasant,South Carolina,USA," 349 W Coleman Blvd STE #202, Mt Pleasant, SC 29464", (843) 417-0607,4.7,,32.5125304,-80.4469965,commercial roof repair near me,2026-06-23,https://roofingusa.com
Zeigler Metal Roofing and Shingles,Mount Pleasant,South Carolina,USA," 2109 Oyster Reef Ln, Mt Pleasant, SC 29466", (843) 212-7013,5,,32.9108469,-79.8377154,metal roof repair near me,2026-06-23,https://www.zeiglermetalroofingandshingles.com
Modern Roofing,Rock Hill,South Carolina,USA," 371 E Main St, Rock Hill, SC 29730", (803) 902-3934,4.8,,34.1287102,-81.1159224,roof repair near me,2026-06-23,http://modernroofingusa.com
Ben Ross Roofing,Rock Hill,South Carolina,USA," 117 Hampton St, Rock Hill, SC 29730", (803) 327-7677,4.9,,34.1287102,-81.1159224,roof leak repair near me,2026-06-23,https://benrossroofing.com
CentiMark Corporation,Rock Hill,South Carolina,USA," 6021 Airport Dr Suite 100, Charlotte, NC 28208", (704) 916-1340,4.6,,35.021176,-81.0882374,commercial roof repair near me,2026-06-23,https://www.centimark.com
Major League Construction,Sioux Falls,South Dakota,USA," 8005 S Pinewood Ave, Sioux Falls, SD 57108", (605) 961-8496,,,43.472172,-96.8926413,roof repair near me,2026-06-23,https://mlcbuilds.com
Built Right Roofing and Construction,Rapid City,South Dakota,USA," 2310 N Maple Ave, Rapid City, SD 57701", (605) 484-1938,5,,44.0965624,-103.2087997,roof repair near me,2026-06-23,https://builtrightroofs.com
Black Hills Exteriors,Rapid City,South Dakota,USA," 2515 E Saint Patrick St Ste 101, Rapid City, SD 57703", (605) 716-7663,4.9,,44.132332,-103.2899015,roofing repair near me,2026-06-23,https://www.bhexteriors.com
RainTite Roofing & Construction,Rapid City,South Dakota,USA," 1719 W Main St, Rapid City, SD 57702", (605) 381-2277,4.8,,44.132332,-103.2899015,emergency roof repair near me,2026-06-23,https://roofingrapidcity.com
All Over Roofing,Aberdeen,South Dakota,USA," 1003 6th Ave SE, Aberdeen, SD 57401", (605) 220-7037,4.8,,45.2858195,-98.468074,roof repair near me,2026-06-23,https://www.alloverroofing.com
Radiant Roofing & Siding,Aberdeen,South Dakota,USA," 1205 6th Ave SW Ste 2, Aberdeen, SD 57401", (605) 203-1805,5,,45.2858195,-98.468074,roofing repair near me,2026-06-23,https://www.radiantroofingsiding.com
True Quality Construction,Brookings,South Dakota,USA," 504 Front St Suite C, Brookings, SD 57006", (605) 691-3795,4.9,,44.879956,-96.7708464,roof repair near me,2026-06-23,http://truequalityco.com
Brookings Roofing,Brookings,South Dakota,USA," 505 1st St S, Brookings, SD 57006", (605) 692-6800,4.9,,44.3573211,-96.8032822,roof leak repair near me,2026-06-23,http://www.brookings-roofing.com
Skywalker Roofing,Brookings,South Dakota,USA," 709 Sun Valley St, Brookings, SD 57006", (605) 215-1248,5,,44.879956,-96.7708464,flat roof repair near me,2026-06-23,http://skywalkerroofingsd.com
Radiant Roofing & Siding,Watertown,South Dakota,USA," 420 4th St NE Ste 151, Watertown, SD 57201", (605) 203-1805,5,,44.9067591,-101.9842718,roof repair near me,2026-06-23,https://radiantroofingsiding.com
Pro-Tec Roofing Inc,Watertown,South Dakota,USA," 520 11th Ave SE, Watertown, SD 57201", (605) 882-4060,4.4,,44.8870584,-101.985898,emergency roof repair near me,2026-06-23,http://www.protecroofingsd.com
Henry & Sons Roof Repair,Nashville,Tennessee,USA," 1704 West End Ave, Nashville, TN 37203", (629) 500-2434,4.9,,36.1547093,-86.7507846,roof repair near me,2026-06-23,https://henryroofrepair.homes
Music City Roofers,Nashville,Tennessee,USA," 2617 Grissom Dr, Nashville, TN 37204", (615) 900-4000,4.7,,36.0786734,-86.7604574,emergency roof repair near me,2026-06-23,https://www.musiccityroofers.com
Mr. Roof Nashville,Nashville,Tennessee,USA," 200 River Hills Dr, Nashville, TN 37210", (615) 208-3245,4.7,,36.1776499,-86.7528143,commercial roof repair near me,2026-06-23,https://www.mrroof.com
The Metal Roofers,Nashville,Tennessee,USA," 935 E Trinity Ln #3, Nashville, TN 37207", (615) 649-5002,4.9,,36.1547093,-86.7568581,metal roof repair near me,2026-06-23,https://www.themetalroofers.com
Don Kennedy,Nashville,Tennessee,USA," 815 Fesslers Ln, Nashville, TN 37210", (629) 276-3360,4.8,,36.1547093,-86.7507846,roofing repair companies near me,2026-06-23,http://donkennedyroofing.com
Wells Roofing and Remodeling,Memphis,Tennessee,USA," 5118 Park Ave suite 114, Memphis, TN 38117", (901) 482-2546,5,,35.1540948,-89.9124679,roof repair near me,2026-06-23,https://wellsroofingandremodeling.com
JT Home Repair and Remodeling,Knoxville,Tennessee,USA," 607 Red Bud Ln, Oliver Springs, TN 37840", (865) 228-9167,3,2,36.029924,-84.9174922,roof repair near me,2026-06-23,https://www.jthomerepair.com
Daniel Hood Roofing,Knoxville,Tennessee,USA," 1924 Laurans Ave, Knoxville, TN 37915", (865) 851-5002,4.8,,35.982374,-83.948455,emergency roof repair near me,2026-06-23,https://danielhoodroofingsystems.com
Litespeed Construction - Knoxville Roofing Contractor,Knoxville,Tennessee,USA," 1532 Washington Ave, Knoxville, TN 37917", (865) 297-3286,4.9,,35.984099,-84.5209912,commercial roof repair near me,2026-06-23,https://litespeedconstruction.com
"FLOW Roofing, LLC",Knoxville,Tennessee,USA," 6233 Strawberry Plains Pike, Knoxville, TN 37914", (865) 910-5530,5,,35.982374,-83.948455,leaking roof repair near me,2026-06-23,https://flowroofing.com
"Best Roofing, Cleveland, TN",Chattanooga,Tennessee,USA," 100 Lyles Rd SE, Cleveland, TN 37323", (423) 464-5697,5,,35.056725,-85.247914,roof repair near me,2026-06-23,https://bestroofing.biz
The Clarksville Roof Guys,Clarksville,Tennessee,USA," 919 Tiny Town Rd, Clarksville, TN 37042", (931) 603-1029,5,,36.3293544,-87.3461009,roof repair near me,2026-06-23,https://theroofguystn.com
Houston Roofing & Construction,Houston,Texas,USA," 11330 West Rd, Houston, TX 77065", (832) 237-3737,4.9,,29.6975606,-95.487679,roof repair near me,2026-06-23,http://www.houstonroofingonline.com
Tims Emergency,Houston,Texas,USA," 1315 Shepherd Dr, Houston, TX 77008", (346) 440-3252,4.8,,29.6975606,-95.487679,emergency roof repair near me,2026-06-23,https://tims-emergency-roofing-houston.ueniweb.com
Texas Roofing & Leak Repair,Houston,Texas,USA," 25145 Star Ln #1102, Katy, TX 77494", (832) 947-3783,4.9,,29.775326,-98.2430988,roof leak repair near me,2026-06-23,https://texasroofingandleakrepair.com
NanoTech Materials,Houston,Texas,USA," 21401 Park Row Blvd Suite 360, Katy, TX 77449", (888) 296-6266,3.4,5,29.791377,-98.1884728,commercial roof repair near me,2026-06-23,https://nanotechmaterials.com
"Precision Roof Crafters, Inc.",Houston,Texas,USA," 3919 Jeanetta St, Houston, TX 77063", (713) 799-8555,4.9,,29.6975606,-95.487679,flat roof repair near me,2026-06-23,https://precisionroofcrafters.com
Amstill Roofing,Houston,Texas,USA," 14125 Memorial Dr, Houston, TX 77079", (281) 612-8747,4.9,,29.769775,-96.2020895,roof repair companies near me,2026-06-23,https://amstillroofing.com
Roof Repair Solutions,Houston,Texas,USA,Houston TX, (713) 202-0890,5,,29.6975606,-95.487679,leaking roof repair near me,2026-06-23,https://www.roofrepairsolutions.net
Rhino Roofers: San Antonio Roofing Company,San Antonio,Texas,USA," 4949 N Loop 1604 W Ste 250, San Antonio, TX 78249", (210) 756-2834,4.9,,29.5939582,-99.1931401,roof repair near me,2026-06-23,https://rhinoroofers.com
HG Roof Repair,San Antonio,Texas,USA,"345 North San Gabriel Ave, San Antonio, TX, United States, 78237", (210) 396-0922,4.7,,29.5375709,-98.3276991,emergency roof repair near me,2026-06-23,https://hugoroofer8888.wixsite.com
San Antonio Commercial Roofing,San Antonio,Texas,USA," 4040 Broadway Suite 240-318, San Antonio, TX 78209", (210) 942-7487,5,,29.4630572,-99.0743708,commercial roof repair near me,2026-06-23,https://sanantoniocommercialroofingtx.com
Simon Roofing,San Antonio,Texas,USA," 2390 Austin Hwy, San Antonio, TX 78218",,5,6,29.437574,-98.4651761,metal roof repair near me,2026-06-23,https://simonroofing.com
The Home Depot,Dallas,Texas,USA," 6110 Lemmon Ave, Dallas, TX 75209", (214) 654-9939,4.2,,32.7210486,-96.8242565,roof repair near me,2026-06-23,https://www.homedepot.com
PK Floors Plus Design & Remodel,Dallas,Texas,USA," 2845 Ridge Rd #207, Rockwall, TX 75032", (469) 960-3768,4.9,,32.7210486,-96.8242565,emergency roof repair near me,2026-06-23,https://pkfloors.com
Turnbow Construction,Dallas,Texas,USA," 1035 S Cedar Hill Rd, Cedar Hill, TX 75104", (214) 204-7668,4.8,,32.571446,-97.1121653,commercial roof repair near me,2026-06-23,https://www.turnbowconstruction.com
Patriot Fence & Roofing Co.,Austin,Texas,USA," 11617 Menchaca Rd, Austin, TX 78748", (512) 300-1000,4.7,,30.3301053,-97.7866282,roof repair near me,2026-06-23,https://choosepatriot.com
Skywall Construction,Austin,Texas,USA," 8101 Cameron Rd #206, Austin, TX 78754", (512) 798-2222,5,,30.3301053,-97.7866282,roofing repair near me,2026-06-23,https://skywallconstruction.com
The Home Depot,Fort Worth,Texas,USA," 7100 N Fwy, Fort Worth, TX 76137", (817) 232-8100,4.2,,32.7409415,-97.45707,roof repair near me,2026-06-23,https://www.homedepot.com
The Home Depot,Fort Worth,Texas,USA," 9509 White Settlement Rd, White Settlement, TX 76108", (817) 367-7115,4.3,,32.7409415,-97.45707,roofing repair near me,2026-06-23,https://www.homedepot.com
Texas Best Roof Repair,Fort Worth,Texas,USA," 2336 Gravel Dr #652, Fort Worth, TX 76118", (817) 383-8845,4.8,,32.819848,-97.348142,emergency roof repair near me,2026-06-23,https://fixmyroofdfw.com
W. R. Meadows of Texas,Fort Worth,Texas,USA," 2555 NE 33rd St, Fort Worth, TX 76111", (817) 834-1969,4.4,,32.824653,-97.3477728,commercial roof repair near me,2026-06-23,https://www.wrmeadows.com
Smith & Ramirez Roofing,El Paso,Texas,USA," 1719 Wyoming Ave, El Paso, TX 79902", (915) 226-0714,4.7,,31.7729987,-106.7794278,roof repair near me,2026-06-23,https://www.smithandramirezroofing.com
AAAA Contractors and Roofing,El Paso,Texas,USA," 1634 Leroy Bonse Dr, El Paso, TX 79936", (915) 852-3104,4.8,,31.8120519,-106.4080434,roofing repair near me,2026-06-23,https://aaaacontractors.com
The Home Depot,Arlington,Texas,USA," 201 W Road to Six Flags St, Arlington, TX 76011", (817) 459-4300,4.2,,32.6945876,-97.1293733,roof repair near me,2026-06-23,https://www.homedepot.com
"Roof Experts, LLC",Arlington,Texas,USA," 4275 Little Rd #202, Arlington, TX 76016", (817) 754-9484,5,,32.6792627,-97.4993651,emergency roof repair near me,2026-06-23,https://roofexpertsllc.com
Simon Roofing,Arlington,Texas,USA," 7600 McCart Ave, Fort Worth, TX 76133", (866) 641-7663,5,42,32.7064516,-97.1625969,metal roof repair near me,2026-06-23,https://simonroofing.com
Texas State Roofing Company,Corpus Christi,Texas,USA," 901 S Staples St, Corpus Christi, TX 78404", (361) 884-7663,4.7,,28.5975576,-97.8881258,roof repair near me,2026-06-23,https://texasstateroofing.com
Bayfront Roofing and Construction,Corpus Christi,Texas,USA," 4646 Corona Dr Ste 167 C, Corpus Christi, TX 78411", (361) 800-5991,4.9,,28.5975576,-97.8881258,emergency roof repair near me,2026-06-23,https://bayfrontroofing.com
"South Texas Metal Roofing, Inc.",Corpus Christi,Texas,USA," 2217 Flour Bluff Dr, Corpus Christi, TX 78418", (361) 937-4600,4.8,,27.8296791,-97.3514336,metal roof repair near me,2026-06-23,http://www.stxmetalroofing.net
Ohh Hail Contractors,Plano,Texas,USA," 550 S Watters Rd Ste. 290, Allen, TX 75013", (972) 567-5766,4.8,,33.0395911,-96.7392521,roof repair near me,2026-06-23,https://ohhhail.com
The Home Depot,Plano,Texas,USA," 909 W McDermott Dr, Allen, TX 75013", (972) 359-0336,4.3,,33.0395547,-96.7392521,roofing repair near me,2026-06-23,https://www.homedepot.com
Roof-Tech,Lubbock,Texas,USA," 2732 82nd St B, Lubbock, TX 79423", (806) 853-5199,4.9,,33.5385065,-101.8921065,roof repair near me,2026-06-23,https://gorooftech.com
West Texas Commercial Roofing,Lubbock,Texas,USA," 3802 M.L.K. Jr Blvd, Lubbock, TX 79404", (806) 416-7663,4.9,,33.5513168,-101.8968056,commercial roof repair near me,2026-06-23,https://westtexascommercialroofing.com
Hartman Roofing Lubbock,Lubbock,Texas,USA," 2108 109th St, Lubbock, TX 79423", (806) 615-0061,4.8,,33.5389764,-101.8968056,roof repair companies near me,2026-06-23,http://hartmanroofinglubbock.com
SERVPRO of NE Salt Lake City/Park City,Salt Lake City,Utah,USA," 2212 S W Temple St Unit 50, South Salt Lake, UT 84115", (801) 435-9813,5,,40.924022,-111.956948,roof repair near me,2026-06-23,https://www.servpro.com
